School,Zip Code,Grades,Local District,Board District,complete_address,latitude,longitude
Frank Del Olmo Elementary,90004,K- 5,C,2-Monica Garcia,100 N New Hampshire Ave Los Angeles CA 90004,34.072925,-118.292591
10th Street Elementary,90015,1- 5,C,2-Monica Garcia,1000 Grattan St Los Angeles CA 90015,34.0482844,-118.27326399999998
Elementary Community Day School,91311,K- 6,XS,3-Scott M Schmerelson,10001 Jumilla Ave Chatsworth CA 91311,34.2518249,-118.5633769
Cesar E Chavez Learning Academy - Arts/Theatre/Entertain Mag,91340,9-12,NE,6-Kelly Gonez,1001 Arroyo Ave San Fernando CA 91340,34.2885136,-118.421011
San Pedro Senior High Gifted STEAM Magnet,90731,9-12,S,7-Dr Richard A Vladovic,1001 W 15th St San Pedro CA 90731,33.73037,-118.2993419
Normont Elementary,90710,K- 5,S,7-Dr Richard A Vladovic,1001 W 253rd St Harbor City CA 90710,33.7947219,-118.2927652
Stoney Point Continuation High,91311,9-12,NW,3-Scott M Schmerelson,10010 De Soto Ave Chatsworth CA 91311,34.252045700000004,-118.5881187
Montara Avenue Elementary,90280,K- 6,E,5-Jackie Goldberg,10018 Montara Ave South Gate CA 90280,33.9442942,-118.2183512
Chatsworth Charter High School,91311,9-12,NW,3-Scott M Schmerelson,10027 Lurline Ave Chatsworth CA 91311,34.253423700000006,-118.58606609999998
Our Community Charter School,91311,K- 8,XR,3-Scott M Schmerelson,10045 Jumilla Ave Chatsworth CA 91311,34.2526771,-118.5639157
Teach Academy of Technologies,90047,5- 8,XR,1-Dr George J McKenna III,10045 S Western Ave Los Angeles CA 90047,33.9441359,-118.3093223
Westminster Avenue Elementary Math/Tech/Env Studies Magnet,90291,K- 5,W,4-Nick Melvoin,1010 Abbot Kinney Blvd Venice CA 90291,33.9916066,-118.4721999
Matrix for Success Academy,90011,9-12,XR,5-Jackie Goldberg,1010 E 34th St Los Angeles CA 90011,34.0121604,-118.2572762
Ernest Lawrence Middle School Gifted Magnet,91311,6- 8,NW,3-Scott M Schmerelson,10100 Variel Ave Chatsworth CA 91311,34.2542079,-118.591846
Alliance Judy Ivie Burton Technology Academy High School,90003,9-12,XR,7-Dr Richard A Vladovic,10101 S Broadway Los Angeles CA 90003,33.9441138,-118.2786642
Pinewood Avenue Elementary,91042,K- 5,NE,6-Kelly Gonez,10111 Silverton Ave Tujunga CA 91042,34.2531547,-118.2851085
Haddon Ave Elementary STEAM Magnet,91331,1- 5,NE,6-Kelly Gonez,10115 Haddon Ave Pacoima CA 91331,34.2532149,-118.421133
Andasol Avenue Elementary,91325,K- 5,NW,3-Scott M Schmerelson,10126 Encino Ave Northridge CA 91325,34.2546975,-118.51440890000002
Broadway Elementary,90291,K- 5,W,4-Nick Melvoin,1015 Lincoln Blvd Venice CA 90291,33.997769500000004,-118.4612582
Extera Public School #2,90023,K- 1,XR,2-Monica Garcia,1015 S Lorena St Los Angeles CA 90023,34.0256614,-118.2027238
Vinedale Elementary,91352,K- 7,NE,6-Kelly Gonez,10150 La Tuna Canyon Rd Sun Valley CA 91352,34.233958200000004,-118.3519248
Dr James Edward Jones Primary Center,90037,K- 2,C,1-Dr George J McKenna III,1017 W 47th St Los Angeles CA 90037,34.0010041,-118.292219
Camino Nuevo Academy #4,90026,K- 8,XR,5-Jackie Goldberg,1018 Mohawk St Los Angeles CA 90026,34.0764615,-118.2652252
Soto Street Elementary,90023,K- 6,E,2-Monica Garcia,1020 S Soto St Los Angeles CA 90023,34.0316946,-118.2169831
Santa Monica Boulevard Community,90038,K- 6,XR,4-Nick Melvoin,1022 N Van Ness Ave Los Angeles CA 90038,34.089580700000006,-118.3151905
Apperson Street Elementary,91040,K- 5,NE,6-Kelly Gonez,10233 Woodward Ave Sunland CA 91040,34.2557573,-118.3074271
Westside Global Awareness Magnet,90292,K- 8,W,4-Nick Melvoin,104 Anchorage St Marina Del Rey CA 90292,33.979159499999994,-118.4648593
Weigand Avenue Elementary,90002,K- 5,S,7-Dr Richard A Vladovic,10401 Weigand Ave Los Angeles CA 90002,33.9410882,-118.2299565
Sally Ride Elementary: A Smart Academy,90011,K- 5,C,5-Jackie Goldberg,1041 E 46th St Los Angeles CA 90011,34.002315100000004,-118.2567737
Valley Academy of Arts and Sciences,91344,9-12,NW,3-Scott M Schmerelson,10445 Balboa Blvd Granada Hills CA 91344,34.2598026,-118.5027832
Amestoy Elementary,90247,K- 5,S,7-Dr Richard A Vladovic,1048 W 149th St Gardena CA 90247,33.8957263,-118.293351
West Hollywood Community Day School,90046,7-12,W,4-Nick Melvoin,1049 N Fairfax Ave West Hollywood CA 90046,34.0900009,-118.3618318
Equitas Academy #3 Charter School,90015,K- K,XR,2-Monica Garcia,1050 Beacon Ave Los Angeles CA 90015,34.0485365,-118.2759098
Aurora Elementary,90011,K- 5,C,7-Dr Richard A Vladovic,1050 E 52nd Pl Los Angeles CA 90011,33.994816,-118.25745890000002
Granada Hills Charter,91344,9-12,XR,3-Scott M Schmerelson,10535 Zelzah Ave Granada Hills CA 91344,34.2609052,-118.5253692
Dorothy V Johnson Community Day School,90002,9-12,S,7-Dr Richard A Vladovic,10601 S Grandee Ave Los Angeles CA 90002,33.9391766,-118.24400520000002
Teach Tech Charter High School,90047,9-12,XR,1-Dr George J McKenna III,10616 S Western Ave Los Angeles CA 90047,33.9394,-118.3087971
Verdugo Hills Senior High,91042,9-12,NE,6-Kelly Gonez,10625 Plainview Ave Tujunga CA 91042,34.2613775,-118.2993739
Overland Avenue Elementary,90064,K- 5,W,1-Dr George J McKenna III,10650 Ashby Ave Los Angeles CA 90064,34.038214,-118.4213025
"Girls Academic Leadership, Dr Michelle King School for STEM",90019,6-12,W,1-Dr George J McKenna III,1067 West Blvd Los Angeles CA 90019,34.05536970000001,-118.3314597
Alliance Cindy & Bill Simon Technology Academy,90059,9-12,XR,7-Dr Richard A Vladovic,10720 S Wilmington Ave Los Angeles CA 90059,33.938494,-118.2387416
Roscoe Elementary,91352,K- 5,NE,6-Kelly Gonez,10765 Strathern St Sun Valley CA 91352,34.2159951,-118.3665367
Downtown Business Magnet,90012,9-12,C,2-Monica Garcia,1081 W Temple St Los Angeles CA 90012,34.0630446,-118.250412
Darby Avenue Elementary,91326,K- 5,NW,3-Scott M Schmerelson,10818 Darby Ave Porter Ranch CA 91326,34.2661632,-118.5332407
Plainview Academic Charter Academy,91042,K- 5,NE,6-Kelly Gonez,10819 Plainview Ave Tujunga CA 91042,34.2655714,-118.2984531
George Washington Preparatory Senior High,90047,9-12,W,1-Dr George J McKenna III,10860 S Denker Ave Los Angeles CA 90047,33.9372016,-118.3043694
Palms Middle School,90034,6- 8,W,1-Dr George J McKenna III,10860 Woodbine St Los Angeles CA 90034,34.0235718,-118.4164463
Tulsa Street Elementary,91344,K- 5,NW,3-Scott M Schmerelson,10900 Hayvenhurst Ave Granada Hills CA 91344,34.269231,-118.492357
Oxnard Street Elementary,91606,K- 5,NE,6-Kelly Gonez,10912 Oxnard St North Hollywood CA 91606,34.179155200000004,-118.3686112
109th Street Elementary,90059,K- 5,S,7-Dr Richard A Vladovic,10915 S Mc Kinley Ave Los Angeles CA 90059,33.9370458,-118.2616616
Century Park Elementary,90303,K- 5,W,1-Dr George J McKenna III,10935 S Spinning Ave Inglewood CA 90303,33.9370316,-118.31919109999998
Berenece Carlson Home School,91602,K-12,XS,3-Scott M Schmerelson,10952 Whipple St North Hollywood CA 91602,34.1478747,-118.368802
Mount Gleason Middle School,91040,6- 8,NE,6-Kelly Gonez,10965 Mt Gleason Ave Sunland CA 91040,34.2686865,-118.30387140000002
Telfair Avenue Elementary,91331,K- 5,NE,6-Kelly Gonez,10975 Telfair Ave Pacoima CA 91331,34.2687359,-118.4318989
Citizens of the World Silver Lake,90026,K- 4,XR,5-Jackie Goldberg,110 N Coronado St Los Angeles CA 90026,34.069417,-118.275321
Alliance Morgan McKinzie High,90063,9-12,XR,2-Monica Garcia,110 S Townsend Ave Los Angeles CA 90063,34.0356467,-118.1877533
Vox Collegiate of Los Angeles,90044,6- 6,XR,7-Dr Richard A Vladovic,1100 W Manchester Ave Los Angeles CA 90044,33.95962859999999,-118.2941828
Mission Continuation High,91340,9-12,NE,6-Kelly Gonez,11015 O'Melveny Ave San Fernando CA 91340,34.270220200000004,-118.4399808
Pacoima Charter Elementary,91331,K- 5,XR,6-Kelly Gonez,11016 Norris Ave Pacoima CA 91331,34.27025689999999,-118.41569040000002
Clover Avenue Elementary,90034,K- 5,W,1-Dr George J McKenna III,11020 Clover Ave Los Angeles CA 90034,34.0265375,-118.4246163
Sara Coughlin Elementary School,91331,K- 5,NE,6-Kelly Gonez,11035 Borden Ave Pacoima CA 91331,34.2703727,-118.4027551
95th Street Elementary,90044,K- 5,W,1-Dr George J McKenna III,1109 W 96th St Los Angeles CA 90044,33.94902020000001,-118.2946396
West Athens Elementary,90044,K- 5,W,1-Dr George J McKenna III,1110 W 119th St Los Angeles CA 90044,33.9244445,-118.294912
Ritter Elementary,90059,K- 5,S,7-Dr Richard A Vladovic,11108 Watts Ave Los Angeles CA 90059,33.933983500000004,-118.227579
Dr Richard A Vladovic Harbor Teacher Preparation Academy,90744,9-12,S,7-Dr Richard A Vladovic,1111 Figueroa Pl Wilmington CA 90744,33.78411,-118.2826821
Ford Boulevard Elementary,90022,K- 5,E,5-Jackie Goldberg,1112 S Ford Blvd Los Angeles CA 90022,34.020241,-118.17142
Animo South Los Angeles Charter High School,90047,9-12,XR,1-Dr George J McKenna III,11130 Western Ave Los Angeles CA 90047,33.9330145,-118.3083202
Charnock Road Elementary,90034,K- 5,W,1-Dr George J McKenna III,11133 Charnock Rd Los Angeles CA 90034,34.0177163,-118.4197331
San Fernando Senior High,91340,9-12,NE,6-Kelly Gonez,11133 O'Melveny Ave San Fernando CA 91340,34.2701053,-118.44012759999998
Oscar de la Hoya Animo Charter High School,90023,9-12,XR,2-Monica Garcia,1114 S Lorena St Los Angeles CA 90023,34.0232883,-118.2034093
Hollywood Primary Center,90038,K- 4,W,4-Nick Melvoin,1115 Tamarind Ave Los Angeles CA 90038,34.0912722,-118.3193004
Aragon Avenue Elementary,90065,K- 5,C,5-Jackie Goldberg,1118 Aragon Ave Los Angeles CA 90065,34.095274,-118.225319
Danube Avenue Elementary,91344,K- 5,NW,3-Scott M Schmerelson,11220 Danube Ave Granada Hills CA 91344,34.273809,-118.473926
Samuel Gompers MS University Pathways Medical Magnet Academy,90061,9-11,S,7-Dr Richard A Vladovic,11227 S San Pedro St Los Angeles CA 90061,33.9325242,-118.2695676
Meyler Street Elementary,90502,K- 5,S,7-Dr Richard A Vladovic,1123 W 223rd St Torrance CA 90502,33.825404,-118.295839
Wisdom Elementary,90001,K- 6,S,7-Dr Richard A Vladovic,1125 E 74th St Los Angeles CA 90001,33.973449200000005,-118.2560885
John F Kennedy Senior High Gifted Medical Magnet,91344,9-12,NW,3-Scott M Schmerelson,11254 Gothic Ave Granada Hills CA 91344,34.275948,-118.487586
Alliance College Ready Academy #8,90063,6- 8,XR,2-Monica Garcia,113 S Rowan Ave Los Angeles CA 90063,34.0354635,-118.1874607
San Fernando Elementary,91340,K- 5,NE,6-Kelly Gonez,1130 Mott St San Fernando CA 91340,34.2794715,-118.4477918
Community Elementary Magnet Charter School,90049,K- 5,W,4-Nick Melvoin,11301 Bellagio Rd Los Angeles CA 90049,34.0827061,-118.462707
Ramona Elementary,90029,K- 6,W,5-Jackie Goldberg,1133 N Mariposa Ave Los Angeles CA 90029,34.0918115,-118.299709
Magnolia Science Academy #4,90064,6-12,XR,4-Nick Melvoin,11330 W Graham Pl Los Angeles CA 90064,34.0298675,-118.43475990000002
Fenton Avenue Primary Center,91331,K- 2,XR,6-Kelly Gonez,11351 Dronfield Ave Pacoima CA 91331,34.276331400000004,-118.4036018
Wilmington Park Elementary,90744,K- 5,S,7-Dr Richard A Vladovic,1140 Mahar Ave Wilmington CA 90744,33.7862172,-118.2461752
Brainard Elementary,91342,K- 5,NE,6-Kelly Gonez,11407 Brainard Ave Lakeview Terrace CA 91342,34.2773899,-118.36462
Maurice Sendak Elementary,91601,K- 5,NE,6-Kelly Gonez,11414 W Tiara St North Hollywood CA 91601,34.178419,-118.3798265
PUC Lakeview Charter Academy,91342,6- 8,XR,6-Kelly Gonez,11465 Kagel Cyn St Lakeview Terrace CA 91342,34.2801323,-118.3815435
PUC Community Charter Middle & Early College High Schools,91342,6- 8,XR,6-Kelly Gonez,11500 Eldridge Ave Lakeview Terrace CA 91342,34.2800972,-118.3823795
Woodcrest Elementary,90044,K- 5,W,1-Dr George J McKenna III,1151 W 109th St Los Angeles CA 90044,33.937644899999995,-118.29591840000002
Arminta Street Elementary,91605,K- 5,NE,6-Kelly Gonez,11530 Strathern St North Hollywood CA 91605,34.214783000000004,-118.3826
Cimarron Avenue Elementary,90250,K- 5,W,1-Dr George J McKenna III,11559 Cimarron Ave Hawthorne CA 90250,33.929058000000005,-118.315966
Citizens of the World Mar Vista,90064,K- 2,XR,4-Nick Melvoin,11561 Gateway Blvd Los Angeles CA 90064,34.0319369,-118.442635
Richland Avenue Elementary,90064,K- 6,W,4-Nick Melvoin,11562 Richland Ave Los Angeles CA 90064,34.028370200000005,-118.4402858
Berendo Middle School,90006,6- 8,C,2-Monica Garcia,1157 S Berendo St Los Angeles CA 90006,34.0493379,-118.2940013
116th Street Elementary,90059,K- 5,S,7-Dr Richard A Vladovic,11610 Stanford Ave Los Angeles CA 90059,33.9288029,-118.2619356
Colfax Charter Elementary,91607,K- 5,NE,3-Scott M Schmerelson,11724 Addison St North Hollywood CA 91607,34.160514600000006,-118.3889249
Stoner Avenue Elementary,90230,K- 5,W,4-Nick Melvoin,11735 Braddock Dr Culver City CA 90230,33.995252,-118.41326200000002
University High School Charter,90025,9-12,W,4-Nick Melvoin,11800 Texas Ave Los Angeles CA 90025,34.046169799999994,-118.4601474
Knollwood Preparatory Academy,91344,K- 5,NW,3-Scott M Schmerelson,11822 Gerald Ave Granada Hills CA 91344,34.285361,-118.49254
Fenton Avenue Elementary,91342,3- 5,XR,6-Kelly Gonez,11828 Gain St Lakeview Terrace CA 91342,34.2803696,-118.3906069
Alliance Marine Tech 6-12 Complex,91352,6-12,XR,6-Kelly Gonez,11933 Allegheny St Sun Valley CA 91352,34.2372206,-118.393284
Estrella Elementary,90011,K- 5,C,7-Dr Richard A Vladovic,120 E 57th St Los Angeles CA 90011,33.9904823,-118.273401
Hillside Elementary,90031,K- 5,E,2-Monica Garcia,120 E Avenue 35 Los Angeles CA 90031,34.0851554,-118.2126853
Francisco Bravo Senior High Medical Magnet,90033,9-12,E,2-Monica Garcia,1200 N Cornwell St Los Angeles CA 90033,34.0576093,-118.2032265
Felicitas And Gonzalo Mendez Senior High,90033,9-12,E,2-Monica Garcia,1200 Plaza Del Sol Los Angeles CA 90033,34.0485209,-118.2270324
Los Angeles Academy of Arts and Enterprise,90026,6-12,XR,2-Monica Garcia,1200 W Colton St Los Angeles CA 90026,34.06203900000001,-118.2544158
Fernangeles DL One & Two-Way Im Spanish,91352,K- 4,NE,6-Kelly Gonez,12001 Art St Sun Valley CA 91352,34.231732,-118.39503
Los Angeles Elementary,90006,K- 5,C,2-Monica Garcia,1211 S Hobart Blvd Los Angeles CA 90006,34.0476826,-118.305646
Queen Anne Place Elementary,90019,K- 5,W,1-Dr George J McKenna III,1212 Queen Anne Pl Los Angeles CA 90019,34.0520009,-118.3309445
Park Western Place Elementary,90732,K- 5,S,7-Dr Richard A Vladovic,1214 Park Western Pl San Pedro CA 90732,33.7528158,-118.3045043
Camino Nuevo High School,90026,9-10,XR,2-Monica Garcia,1215 W Miramar St Los Angeles CA 90026,34.0580589,-118.2578244
PUC Nueva Esperanza Charter Academy,91340,6- 8,XR,6-Kelly Gonez,1218 4th St San Fernando CA 91340,34.287766999999995,-118.4385348
Burbank Boulevard Elementary,91607,K- 5,NE,3-Scott M Schmerelson,12215 Albers St North Hollywood CA 91607,34.170582399999994,-118.3991721
Playa Del Rey Elementary,90230,K- 5,W,4-Nick Melvoin,12221 Juniette St Culver City CA 90230,33.982265500000004,-118.4096241
Animo Legacy Charter Middle School,90047,6- 8,XR,1-Dr George J McKenna III,12226 S Western Ave Los Angeles CA 90047,33.9211517,-118.3086373
El Oro Way Charter for Enriched Studies,91344,K- 5,NW,3-Scott M Schmerelson,12230 El Oro Way Granada Hills CA 91344,34.2932011,-118.5048264
Hooper Avenue Elementary,90011,1- 5,C,5-Jackie Goldberg,1225 E 52nd St Los Angeles CA 90011,33.9956919,-118.2536216
Aspire Inskeep Academy Charter,90003,K- 6,XR,7-Dr Richard A Vladovic,123 W 59th St Los Angeles CA 90003,33.9872111,-118.2743145
Robert Frost Middle School,91344,6- 8,NW,3-Scott M Schmerelson,12314 Bradford Pl Granada Hills CA 91344,34.2947615,-118.5115905
Harry Bridges Span School,90744,K- 8,S,7-Dr Richard A Vladovic,1235 Broad Ave Wilmington CA 90744,33.7872845,-118.2617529
Arts in Action Community Middle,90023,6- 8,XR,2-Monica Garcia,1241 S Soto St Los Angeles CA 90023,34.027525399999995,-118.219859
John H Francis Polytechnic Senior High,91352,9-12,NE,6-Kelly Gonez,12431 Roscoe Blvd Sun Valley CA 91352,34.222798700000006,-118.4041655
Vista del Valle Dual Language Academy,91340,K- 5,NE,6-Kelly Gonez,12441 Bromont Ave San Fernando CA 91340,34.2957652,-118.421513
Porter Ranch School DL Two-Way Im Korean,91326,K- 5,NW,3-Scott M Schmerelson,12450 Mason Ave Porter Ranch CA 91326,34.293056400000005,-118.5812973
Goethe International Charter School,90066,K- 5,XR,4-Nick Melvoin,12500 Braddock Dr Los Angeles CA 90066,33.987381899999995,-118.4222706
Robert H Lewis Continuation High,91352,9-12,NE,6-Kelly Gonez,12508 Wicks St Sun Valley CA 91352,34.226157,-118.404227
Bert Corona Charter High,91331,9-10,XR,6-Kelly Gonez,12513 Gain St Pacoima CA 91331,34.271262799999995,-118.404461
Glenn Hammond Curtiss Middle School,90746,6- 8,S,7-Dr Richard A Vladovic,1254 E Helmick St Carson CA 90746,33.8500676,-118.2507222
Charles Maclay Middle School,91331,6- 8,NE,6-Kelly Gonez,12540 Pierce Ave Pacoima CA 91331,34.2712446,-118.4060633
PUC Inspire Charter Academy,91331,6- 8,XR,6-Kelly Gonez,12550 Van Nuys Blvd Pacoima CA 91331,34.2765311,-118.4054708
Hillery T Broadous Elementary,91331,K- 5,NE,6-Kelly Gonez,12561 Filmore St Pacoima CA 91331,34.283035,-118.408263
Ann Street Elementary,90012,K- 5,E,2-Monica Garcia,126 E Bloom St Los Angeles CA 90012,34.064324799999994,-118.2302763
Lenicia B Weemes Elementary,90007,K- 5,C,1-Dr George J McKenna III,1260 W 36th Pl Los Angeles CA 90007,34.0216126,-118.2967404
Ocean Charter,90066,K- 8,XR,4-Nick Melvoin,12606 Culver Blvd Los Angeles CA 90066,33.986434,-118.424274
Animo Watts College Preparatory Academy,90061,9-12,XR,7-Dr Richard A Vladovic,12628 Avalon Blvd Los Angeles CA 90061,33.9179976,-118.2641283
Russell Elementary,90001,K- 6,S,7-Dr Richard A Vladovic,1263 E Firestone Blvd Los Angeles CA 90001,33.9605203,-118.251703
Endeavor College Prep Charter School,90023,K- 8,XR,2-Monica Garcia,1263 S Soto St Los Angeles CA 90023,34.026679,-118.2200417
112th Street Elementary,90059,K- 5,S,7-Dr Richard A Vladovic,1265 E 112th St Los Angeles CA 90059,33.933774799999995,-118.2529361
Larchmont Charter School,90046,K-10,XR,4-Nick Melvoin,1265 N Fairfax Ave West Hollywood CA 90046,34.093587799999995,-118.3618775
Animo Mae Jemison Charter Middle School,90061,6- 8,XR,7-Dr Richard A Vladovic,12700 Avalon Blvd Los Angeles CA 90061,33.9175334,-118.2638999
New Design Charter School - Watts,90061,6-12,XR,7-Dr Richard A Vladovic,12714 S Avalon Los Angeles CA 90061,33.91713970000001,-118.2646764
El Dorado Avenue Elementary,91342,K- 5,NE,6-Kelly Gonez,12749 El Dorado Ave Sylmar CA 91342,34.3014391,-118.465918
Hooper Avenue Primary Center,90011,K- K,C,5-Jackie Goldberg,1280 E 52nd St Los Angeles CA 90011,33.9954878,-118.2525393
Short Avenue Elementary,90066,K- 6,W,4-Nick Melvoin,12814 Maxella Ave Los Angeles CA 90066,33.9900857,-118.4319635
Charles Leroy Lowman Special Ed & Career Transition Center,91605,K-12,NE,6-Kelly Gonez,12827 Saticoy St North Hollywood CA 91605,34.2067077,-118.4127961
Main Street Elementary,90011,K- 5,C,7-Dr Richard A Vladovic,129 E 53rd St Los Angeles CA 90011,33.9946065,-118.2730813
Jack London Continuation High,91401,9-12,NE,3-Scott M Schmerelson,12924 Oxnard St Van Nuys CA 91401,34.17931420000001,-118.4147006
Phoenix Continuation High,90066,9-12,W,4-Nick Melvoin,12971 Zanja St Los Angeles CA 90066,33.9969532,-118.44098
San Fernando Middle School,91340,6- 8,NE,6-Kelly Gonez,130 N Brand Blvd San Fernando CA 91340,34.2828802,-118.4373758
James Madison Middle School,91605,6- 8,NE,3-Scott M Schmerelson,13000 Hart St North Hollywood CA 91605,34.196244,-118.416501
Montague Charter Academy for the Arts and Sciences,91331,K- 5,XR,6-Kelly Gonez,13000 Montague St Pacoima CA 91331,34.2444734,-118.4153097
Ulysses S Grant Senior High,91401,9-12,NE,3-Scott M Schmerelson,13000 Oxnard St Van Nuys CA 91401,34.177452,-118.416281
Venice Senior High,90066,9-12,W,4-Nick Melvoin,13000 Venice Blvd Los Angeles CA 90066,33.9970901,-118.4445798
Fries Avenue Elementary,90744,K- 5,S,7-Dr Richard A Vladovic,1301 Fries Ave Wilmington CA 90744,33.7886708,-118.2658641
Gardena Senior High,90248,9-12,S,7-Dr Richard A Vladovic,1301 W 182nd St Gardena CA 90248,33.8672459,-118.29473090000002
Rockdale Visual & Performing Arts Magnet,90041,K- 6,C,5-Jackie Goldberg,1303 Yosemite Dr Los Angeles CA 90041,34.1333523,-118.1943249
Sylmar Academy Biotech Health/Eng Magnet,91342,9-12,NE,6-Kelly Gonez,13050 Borden Ave Sylmar CA 91342,34.3077277,-118.4410553
Harding Street Elementary,91342,K- 5,NE,6-Kelly Gonez,13060 Harding St Sylmar CA 91342,34.3052925,-118.4164548
Riverside Drive Charter School,91423,K- 5,NE,3-Scott M Schmerelson,13061 Riverside Dr Sherman Oaks CA 91423,34.1586514,-118.4172088
Brockton Avenue Elementary,90025,K- 5,W,4-Nick Melvoin,1309 Armacost Ave Los Angeles CA 90025,34.044357299999994,-118.4629919
APEX Academy,90028,7-12,XR,4-Nick Melvoin,1309 N Wilton Pl 3rd Fl Los Angeles CA 90028,34.0962709,-118.314839
Alliance College Ready Academy #12,90011,6- 6,XR,7-Dr Richard A Vladovic,131 E 50th St Los Angeles CA 90011,33.997698,-118.27327
Evergreen Continuation High,91342,9-12,NE,6-Kelly Gonez,13101 Dronfield Ave Sylmar CA 91342,34.309638799999995,-118.439898
Christopher Dena Elementary,90023,K- 6,E,2-Monica Garcia,1314 Dacotah St Los Angeles CA 90023,34.0221067,-118.2112245
Playa Vista Elementary,90094,K- 5,W,4-Nick Melvoin,13150 W Bluff Creek Dr Playa Vista CA 90094,33.9686229,-118.4243954
Joseph Le Conte Middle School,90028,6- 8,W,4-Nick Melvoin,1316 N Bronson Ave Hollywood CA 90028,34.0947984,-118.3166922
Thomas Jefferson Senior High,90011,9-12,C,5-Jackie Goldberg,1319 E 41st St Los Angeles CA 90011,34.0094826,-118.25087659999998
Betty Plasencia Elementary,90026,K- 5,C,2-Monica Garcia,1321 Cortez St Los Angeles CA 90026,34.066333,-118.25597340000002
Dr Lawrence H Moore Math Science Technology Academy,90001,K- 5,S,7-Dr Richard A Vladovic,1321 E 61st St Los Angeles CA 90001,33.9845948,-118.2517555
Purche Avenue Elementary STEAM Magnet,90249,1- 5,S,1-Dr George J McKenna III,13210 Purche Ave Gardena CA 90249,33.9123614,-118.32021
Sylmar Elementary,91342,K- 5,NE,6-Kelly Gonez,13291 Phillippi Ave Sylmar CA 91342,34.312037100000005,-118.4474172
Hubbard Street Elementary STEAM Magnet,91342,1- 3,NE,6-Kelly Gonez,13325 Hubbard St Sylmar CA 91342,34.314095,-118.424468
Vaughn Next Century Learning Center,91340,K-12,XR,6-Kelly Gonez,13330 Vaughn St San Fernando CA 91340,34.2804775,-118.4225892
Herrick Avenue Elementary,91342,K- 5,NE,6-Kelly Gonez,13350 Herrick Ave Sylmar CA 91342,34.31507270000001,-118.4639066
PUC Lakeview Charter High School,91342,9-12,XR,6-Kelly Gonez,13361 Glenoaks Blvd Sylmar CA 91342,34.3140317,-118.459644
Parmelee Avenue Elementary,90001,K- 6,S,7-Dr Richard A Vladovic,1338 E 76th Pl Los Angeles CA 90001,33.970087799999995,-118.2508983
Erwin Elementary,91401,K- 5,NE,3-Scott M Schmerelson,13400 Erwin St Van Nuys CA 91401,34.1826464,-118.4253073
Lake Street Primary School,90026,K- 1,C,2-Monica Garcia,135 N Lake St Los Angeles CA 90026,34.0681059,-118.2710311
20th Street Elementary,90011,K- 5,C,2-Monica Garcia,1353 E 20th St Los Angeles CA 90011,34.0224693,-118.2493274
Discovery Charter Preparatory School #2,91342,9-12,XR,6-Kelly Gonez,13570 Eldridge Ave Sylmar CA 91342,34.319027,-118.4249357
Kittridge Street Elementary,91401,K- 5,NE,3-Scott M Schmerelson,13619 Kittridge St Van Nuys CA 91401,34.191358,-118.42986299999998
Canterbury Avenue Elementary,91331,K- 5,NE,6-Kelly Gonez,13670 Montague St Arleta CA 91331,34.232913,-118.429194
STEM Preparatory Elementary,90007,K- 3,XR,1-Dr George J McKenna III,1374 W 35th St Los Angeles CA 90007,34.02432510000001,-118.2996633
Sharp Avenue Elementary,91331,K- 5,NE,6-Kelly Gonez,13800 Pierce St Arleta CA 91331,34.252292,-118.432521
Avalon Gardens Elementary,90061,K- 6,S,7-Dr Richard A Vladovic,13940 S San Pedro St Los Angeles CA 90061,33.9049987,-118.2684432
Miramonte Elementary,90001,K- 5,S,7-Dr Richard A Vladovic,1400 E 68th St Los Angeles CA 90001,33.9781209,-118.2498756
PUC Community Charter Elementary,91342,K- 5,XR,6-Kelly Gonez,14019 Syre St Sylmar CA 91342,34.306225899999994,-118.4387857
Benjamin Banneker Career and Transition Center,90061,12-12,S,7-Dr Richard A Vladovic,14024 S San Pedro St Los Angeles CA 90061,33.9039059,-118.2683393
Fairburn Avenue Elementary,90024,K- 5,W,4-Nick Melvoin,1403 Fairburn Ave Los Angeles CA 90024,34.0591585,-118.4311421
Chandler Elementary,91401,K- 5,NE,3-Scott M Schmerelson,14030 Weddington St Sherman Oaks CA 91401,34.165736200000005,-118.4390012
Chase Street Elementary,91402,K- 5,NW,6-Kelly Gonez,14041 Chase St Panorama City CA 91402,34.226489,-118.439682
White Point Elementary,90731,K- 5,S,7-Dr Richard A Vladovic,1410 Silvius Ave San Pedro CA 90731,33.71657080000001,-118.3085231
Charles Drew MS University Pathways Public Service Academy,90001,9-11,S,7-Dr Richard A Vladovic,1415 Firestone Blvd Los Angeles CA 90001,33.960249600000004,-118.2490793
Robert E Peary Middle School,90247,6- 8,S,7-Dr Richard A Vladovic,1415 W Gardena Blvd Gardena CA 90247,33.882859,-118.301448
75th Street Elementary,90003,K- 6,S,7-Dr Richard A Vladovic,142 W 75th St Los Angeles CA 90003,33.9716741,-118.2752087
Dr Julian Nava Learning Academy,90011,6- 8,C,2-Monica Garcia,1420 E Adams Blvd Los Angeles CA 90011,34.0152673,-118.2488249
Arleta Senior High,91331,9-12,NE,6-Kelly Gonez,14200 Van Nuys Blvd Arleta CA 91331,34.25064890000001,-118.4415659
Dan M Isaacs Avalon High School,90744,9-12,S,7-Dr Richard A Vladovic,1425 N Avalon Blvd Wilmington CA 90744,33.7919169,-118.2639406
Gabriella Charter School,90026,K- 8,XR,5-Jackie Goldberg,1435 Logan St Los Angeles CA 90026,34.0801386,-118.2570321
Vermont Avenue Elementary,90007,K- 5,C,1-Dr George J McKenna III,1435 W 27th St Los Angeles CA 90007,34.03083839999999,-118.2928127
118th Street Elementary,90061,K- 5,S,7-Dr Richard A Vladovic,144 E 118th St Los Angeles CA 90061,33.92608269999999,-118.2718936
Ascot Avenue Elementary,90011,K- 5,C,5-Jackie Goldberg,1447 E 45th St Los Angeles CA 90011,34.0034526,-118.24817079999998
Paul Revere Charter Middle School,90049,6- 8,W,4-Nick Melvoin,1450 Allenford Ave Los Angeles CA 90049,34.0550901,-118.4951848
Dyer Street Elementary,91342,K- 5,NE,6-Kelly Gonez,14500 Dyer St Sylmar CA 91342,34.2995527,-118.4472571
Sylmar Leadership Academy,91342,K- 8,NE,6-Kelly Gonez,14550 Bledsoe St Sylmar CA 91342,34.318825700000005,-118.4498654
Olive Vista Middle School,91342,6- 8,NE,6-Kelly Gonez,14600 Tyler St Sylmar CA 91342,34.310942100000005,-118.44921940000002
Cal Burke High School,91402,9-12,NE,6-Kelly Gonez,14630 Lanark St Panorama City CA 91402,34.2176638,-118.4527487
Valley Charter Middle School,91405,6- 8,XR,6-Kelly Gonez,14646 Sherman Way Van Nuys CA 91405,34.200636100000004,-118.4525157
President Avenue Elementary,90710,K- 6,S,7-Dr Richard A Vladovic,1465 W 243rd St Harbor City CA 90710,33.804249600000006,-118.3025177
107th Street Elementary,90003,K- 5,S,7-Dr Richard A Vladovic,147 E 107th St Los Angeles CA 90003,33.940181,-118.272494
New Village Girls Academy,90026,9-12,XR,2-Monica Garcia,147 N Occidental Blvd Los Angeles CA 90026,34.071532399999995,-118.2798414
96th Street Elementary,90002,K- 6,S,7-Dr Richard A Vladovic,1471 E 96th St Los Angeles CA 90002,33.9491962,-118.2483452
Will Rogers Continuation High,91411,9-12,NE,6-Kelly Gonez,14711 Gilmore St Van Nuys CA 91411,34.1879138,-118.4540064
Sherman Oaks Elementary Charter School,91403,K- 5,NE,3-Scott M Schmerelson,14755 Greenleaf St Sherman Oaks CA 91403,34.1498966,-118.455634
Alta California Elementary Gifted/STEAM Magnet,91402,2- 5,NW,6-Kelly Gonez,14859 Rayen St Panorama City CA 91402,34.232785,-118.4569794
San Jose Street Elementary,91345,K- 5,NW,6-Kelly Gonez,14928 Clymer St Mission Hills CA 91345,34.26239279999999,-118.4580257
Osceola Street Elementary,91342,K- 5,NE,6-Kelly Gonez,14940 Osceola St Sylmar CA 91342,34.2903898,-118.4559654
Union Avenue Elementary,90057,K- 5,C,2-Monica Garcia,150 S Burlington Ave Los Angeles CA 90057,34.06247200000001,-118.26729
Robert Hill Lane Elementary,91754,K- 6,E,5-Jackie Goldberg,1500 Avenida Cesar Chavez Monterey Park CA 91754,34.039747,-118.1522387
West Adams Preparatory Senior High,90007,9-12,C,2-Monica Garcia,1500 W Washington Bl Los Angeles CA 90007,34.03976,-118.28954170000002
Murchison Street Elementary,90033,K- 6,E,2-Monica Garcia,1501 Murchison St Los Angeles CA 90033,34.0598573,-118.1959607
Richard Henry Dana Middle School,90731,6- 8,S,7-Dr Richard A Vladovic,1501 S Cabrillo Ave San Pedro CA 90731,33.7306286,-118.295533
Lassen Elementary,91343,K- 5,NW,6-Kelly Gonez,15017 Superior St North Hills CA 91343,34.247396,-118.460162
Valerio Street Elementary,91405,K- 5,NE,6-Kelly Gonez,15035 Valerio St Van Nuys CA 91405,34.2051321,-118.460378
Vista Middle School,91402,6- 8,NE,6-Kelly Gonez,15040 Roscoe Blvd Panorama City CA 91402,34.221081,-118.460294
Harbor City Elementary,90710,K- 5,S,7-Dr Richard A Vladovic,1508 W 254th St Harbor City CA 90710,33.7933935,-118.30317990000002
John Adams Middle School,90007,6- 8,C,2-Monica Garcia,151 W 30th St Los Angeles CA 90007,34.0226018,-118.27047759999998
Micheltorena Street Elementary,90026,K- 5,C,5-Jackie Goldberg,1511 Micheltorena St Los Angeles CA 90026,34.088915500000006,-118.2752737
Boys Academic Leadership Academy,90047,6- 9,W,1-Dr George J McKenna III,1511 W 110th St Los Angeles CA 90047,33.9360275,-118.3027514
Pio Pico Middle School,90019,6- 8,W,1-Dr George J McKenna III,1512 S Arlington Ave Los Angeles CA 90019,34.0450973,-118.3172
Compton Avenue Elementary,90002,K- 5,S,7-Dr Richard A Vladovic,1515 E 104th St Los Angeles CA 90002,33.9426112,-118.2471118
Virgil Middle School,90004,6- 8,C,2-Monica Garcia,152 N Vermont Ave Los Angeles CA 90004,34.0738624,-118.2912387
Hollywood Senior High,90028,9-12,W,4-Nick Melvoin,1521 N Highland Ave Los Angeles CA 90028,34.0991651,-118.3400534
Thomas Riley High School - CYESIS,90002,7-12,S,7-Dr Richard A Vladovic,1524 E 103rd St Los Angeles CA 90002,33.9429764,-118.2471102
Phineas Banning Senior High,90744,9-12,S,7-Dr Richard A Vladovic,1527 Lakme Ave Wilmington CA 90744,33.7944323,-118.2612504
15th Street Elementary,90731,K- 5,S,7-Dr Richard A Vladovic,1527 S Mesa St San Pedro CA 90731,33.729952000000004,-118.287287
Grant Elementary,90028,K- 6,W,5-Jackie Goldberg,1530 N Wilton Pl Los Angeles CA 90028,34.0998217,-118.3132646
Francisco Sepulveda Middle School Gifted Magnet,91343,6- 8,NW,6-Kelly Gonez,15330 Plummer St North Hills CA 91343,34.242394700000006,-118.46576090000002
Ivy Bound Academy of Math Science & Technology,91403,5- 8,XR,3-Scott M Schmerelson,15355 Morrison St Sherman Oaks CA 91403,34.1614237,-118.4686103
Judith F Baca Arts Acad DL Two-Way Im Spanish,90002,K- 6,S,7-Dr Richard A Vladovic,1536 E 89th St Los Angeles CA 90002,33.956103000000006,-118.246351
Duke Ellington Continuation High,90047,9-12,W,1-Dr George J McKenna III,1541 W 110th St Los Angeles CA 90047,33.9357862,-118.3039335
Animo Florence-Firestone Charter Middle,90003,6- 7,XR,7-Dr Richard A Vladovic,155 W 69th St Los Angeles CA 90003,33.9775842,-118.2758219
Alliance Ted K Tajima High,90026,9-11,XR,2-Monica Garcia,1552 W Rockwood St Los Angeles CA 90026,34.063479,-118.261535
Hesby Oaks Leadership Charter,91436,K- 8,NW,4-Nick Melvoin,15530 Hesby St Encino CA 91436,34.1618534,-118.4726643
Elysian Heights Elementary Arts Magnet,90026,K- 5,C,5-Jackie Goldberg,1562 Baxter St Los Angeles CA 90026,34.088886200000005,-118.24941880000002
Nevin Avenue Elementary,90011,K- 5,C,5-Jackie Goldberg,1569 E 32nd St Los Angeles CA 90011,34.0125015,-118.2465864
7th Street Elementary,90732,K- 5,S,7-Dr Richard A Vladovic,1570 W 7th St San Pedro CA 90732,33.7380764,-118.311229
Belmont Senior High,90026,9-12,C,2-Monica Garcia,1575 W 2nd St Los Angeles CA 90026,34.0613347,-118.2629057
Bassett Street Elementary,91406,K- 5,NW,3-Scott M Schmerelson,15756 Bassett St Lake Balboa CA 91406,34.1955034,-118.4767019
Palisades Charter High School,90272,9-12,XR,4-Nick Melvoin,15777 Bowdoin St Pacific Palisades CA 90272,34.0472126,-118.5304488
186th Street Elementary,90248,K- 5,S,7-Dr Richard A Vladovic,1581 W 186th St Gardena CA 90248,33.863714200000004,-118.305562
Cohasset Street Elementary,91406,K- 5,NW,6-Kelly Gonez,15810 Saticoy St Lake Balboa CA 91406,34.207947600000004,-118.4780905
Vintage Elementary Math/Science/Technology Magnet,91343,K- 5,NW,3-Scott M Schmerelson,15848 Stare St North Hills CA 91343,34.2525435,-118.4776299
Haskell Elementary STEAM Magnet,91344,K- 5,NW,3-Scott M Schmerelson,15850 Tulsa St Granada Hills CA 91344,34.2680434,-118.4775003
Albert Einstein Continuation High School,91343,9-12,NW,6-Kelly Gonez,15938 Tupper St North Hills CA 91343,34.2390263,-118.47989540000002
George K Porter Middle School,91344,6- 8,NW,3-Scott M Schmerelson,15960 Kingsbury St Granada Hills CA 91344,34.262316,-118.479919
Middle College High School,90047,9-12,W,1-Dr George J McKenna III,1600 Imperial Hwy Bldg 16 Los Angeles CA 90047,33.9309058,-118.30474270000002
King-Drew Senior High Medicine and Science Magnet,90059,9-12,S,7-Dr Richard A Vladovic,1601 E 120th St Los Angeles CA 90059,33.9241196,-118.2458098
Gledhill Street Elementary Science/Tech/Math Magnet,91343,1- 5,NW,6-Kelly Gonez,16030 Gledhill St North Hills CA 91343,34.241043,-118.4816258
153rd Street Elementary,90247,K- 6,S,7-Dr Richard A Vladovic,1605 W 153rd St Gardena CA 90247,33.893542700000005,-118.3058835
Carson Street Elementary,90745,K- 5,S,7-Dr Richard A Vladovic,161 E Carson St Carson CA 90745,33.831856200000004,-118.27580259999998
Para Los Ninos Charter,90021,K- 5,XR,2-Monica Garcia,1617 E 7th St Los Angeles CA 90021,34.0352598,-118.2370381
Denker Avenue Elementary,90247,K- 5,S,7-Dr Richard A Vladovic,1620 W 162nd St Gardena CA 90247,33.8828945,-118.305514
Magnolia Avenue Elementary,90006,K- 5,C,2-Monica Garcia,1626 S Orchard Ave Los Angeles CA 90006,34.0434932,-118.28797140000002
Lovelia P Flournoy Elementary,90059,K- 5,S,7-Dr Richard A Vladovic,1630 E 111th St Los Angeles CA 90059,33.9342321,-118.245297
Walgrove Avenue Elementary,90066,K- 5,W,4-Nick Melvoin,1630 Walgrove Ave Los Angeles CA 90066,34.006231,-118.451463
Jane Addams Continuation High,91344,9-12,NW,3-Scott M Schmerelson,16341 Donmetz St Granada Hills CA 91344,34.2740202,-118.4881982
San Pedro Street Elementary,90015,K- 5,C,2-Monica Garcia,1635 S San Pedro St Los Angeles CA 90015,34.028208,-118.2570572
Edwin Markham Middle School,90002,6- 8,S,7-Dr Richard A Vladovic,1650 E 104th St Los Angeles CA 90002,33.9411254,-118.2457379
Emerson Community Charter,90024,6- 8,W,4-Nick Melvoin,1650 Selby Ave Los Angeles CA 90024,34.05387460000001,-118.4362071
Valley Charter Elementary School,91343,K- 5,XR,3-Scott M Schmerelson,16514 Nordhoff St North Hills CA 91343,34.234881,-118.49191609999998
Animo Ralph Bunche Charter High,90011,9-12,XR,5-Jackie Goldberg,1655 E 27th St Los Angeles CA 90011,34.01270969999999,-118.2439824
Crescent Heights Boulevard Elementary Lang Arts/Soc Jstc Mag,90035,K- 5,W,1-Dr George J McKenna III,1661 S Crescent Hts Blvd Los Angeles CA 90035,34.047263,-118.373998
Mayall Street Academy of Arts/Technology Magnet,91343,K- 5,NW,3-Scott M Schmerelson,16701 Mayall St North Hills CA 91343,34.2541036,-118.4965015
Marquez Charter,90272,K- 5,W,4-Nick Melvoin,16821 Marquez Ave Pacific Palisades CA 90272,34.0457867,-118.5477428
Parthenia Academy of Arts and Technology,91343,K- 5,NW,3-Scott M Schmerelson,16825 Napa St North Hills CA 91343,34.2272802,-118.4991692
Encino Charter Elementary,91316,K- 5,NW,4-Nick Melvoin,16941 Addison St Encino CA 91316,34.162071600000004,-118.50249440000002
Wilmington Middle School STEAM Magnet,90744,6- 8,S,7-Dr Richard A Vladovic,1700 Gulf Ave Wilmington CA 90744,33.7978661,-118.27401129999998
Barack Obama Global Preparation Academy,90062,6- 8,C,1-Dr George J McKenna III,1700 W 46th St Los Angeles CA 90062,34.0011373,-118.309155
Equitas Academy Charter School,90015,K- 5,XR,2-Monica Garcia,1700 W Pico Blvd Los Angeles CA 90015,34.044837,-118.278444
Gault Street Elementary,91406,K- 5,NW,3-Scott M Schmerelson,17000 Gault St Lake Balboa CA 91406,34.1990696,-118.50416409999998
Birmingham Community Charter High School,91406,9-12,XR,3-Scott M Schmerelson,17000 Haynes St Lake Balboa CA 91406,34.1881585,-118.5042254
Public Policy Charter,90062,5- 6,XR,1-Dr George J McKenna III,1701 Browning Blvd Los Angeles CA 90062,34.0120751,-118.309368
Balboa Elementary Gifted/Highly Gifted/High Ability Magnet,91325,1- 5,NW,3-Scott M Schmerelson,17020 Labrador St Northridge CA 91325,34.2489662,-118.5030091
Valor Academy Elementary School,91325,K- 2,XR,3-Scott M Schmerelson,17081 Devonshire St Northridge CA 91325,34.258472,-118.505732
Logan Academy of Global Ecology,90026,K- 8,C,5-Jackie Goldberg,1711 W Montana St Los Angeles CA 90026,34.0788102,-118.257733
Hightech LA,91406,9-12,XR,3-Scott M Schmerelson,17111 Victory Bl Lake Balboa CA 91406,34.1872124,-118.5061308
William Mulholland Middle School,91406,6- 8,NW,3-Scott M Schmerelson,17120 Vanowen St Lake Balboa CA 91406,34.193552399999994,-118.5053196
Van Gogh Charter,91344,K- 5,NW,3-Scott M Schmerelson,17160 Van Gogh St Granada Hills CA 91344,34.3055309,-118.5058746
Arlington Heights Elementary DL Two-Way Im Spanish,90019,K- K,W,1-Dr George J McKenna III,1717 7th Av Los Angeles CA 90019,34.0411924,-118.325023
Granada Elementary,91344,K- 5,NW,3-Scott M Schmerelson,17170 Tribune St Granada Hills CA 91344,34.266944,-118.507778
Camino Nuevo Elementary School #3,90007,K- 8,XR,2-Monica Garcia,1723 Cordova St Los Angeles CA 90007,34.0392643,-118.2952613
Western Avenue Tech/Eng/Comm/Hum Magnet,90062,K- 6,W,1-Dr George J McKenna III,1724 W 53rd St Los Angeles CA 90062,33.9939307,-118.30724440000002
KIPP Scholar Academy,90062,5- 7,XR,1-Dr George J McKenna III,1729 W Ml King Jr Blvd Los Angeles CA 90062,34.011112,-118.3100053
Nora Sterry Elementary,90025,K- 5,W,4-Nick Melvoin,1730 Corinth Ave Los Angeles CA 90025,34.0438281,-118.44737109999998
Patrick Henry Middle School,91344,6- 8,NW,3-Scott M Schmerelson,17340 San Jose St Granada Hills CA 91344,34.2589715,-118.5120395
Los Feliz Science/Tech/Engineer/Math/Medicine Magnet,90027,K- 5,C,5-Jackie Goldberg,1740 N New Hampshire Ave Los Angeles CA 90027,34.1028081,-118.2929954
Lorne Street Elementary,91325,K- 5,NW,6-Kelly Gonez,17440 Lorne St Northridge CA 91325,34.2167126,-118.5131314
Alta Loma Elementary,90019,K- 5,W,1-Dr George J McKenna III,1745 Vineyard Ave Los Angeles CA 90019,34.043014,-118.339686
Eagle Rock High School,90041,7-12,C,5-Jackie Goldberg,1750 Yosemite Dr Los Angeles CA 90041,34.1317787,-118.2063795
Lemay Street Elementary,91406,K- 5,NW,3-Scott M Schmerelson,17520 Vanowen St Lake Balboa CA 91406,34.192639,-118.5150665
Academy for Enriched Sciences Elementary Magnet,91316,K- 5,NW,3-Scott M Schmerelson,17551 Miranda St Encino CA 91316,34.1747816,-118.51499950000002
Birdielee V Bright Elementary,90018,K- 5,W,1-Dr George J McKenna III,1771 W 36th St Los Angeles CA 90018,34.023143700000006,-118.3110952
Emelita Street Elementary,91316,K- 5,NW,3-Scott M Schmerelson,17931 Hatteras St Encino CA 91316,34.1765217,-118.5238054
Cantara Street Elementary Visual/Performing Arts Magnet,91335,3- 5,NW,6-Kelly Gonez,17950 Cantara St Reseda CA 91335,34.218428,-118.525236
Moneta Continuation High,90248,9-12,S,7-Dr Richard A Vladovic,17951 S Budlong Ave Gardena CA 90248,33.8674093,-118.2949541
Northridge Middle Medical Health Careers Magnet,91325,6- 8,NW,3-Scott M Schmerelson,17960 Chase St Northridge CA 91325,34.2237928,-118.5251695
Garden Grove Elementary,91335,K- 5,NW,6-Kelly Gonez,18141 Valerio St Reseda CA 91335,34.205442,-118.528436
Zane Grey Continuation High,91335,9-12,NW,6-Kelly Gonez,18230 Kittridge St Reseda CA 91335,34.1884315,-118.5288733
Taper Avenue Elementary STEAM Magnet,90731,K- 5,S,7-Dr Richard A Vladovic,1824 Taper Ave San Pedro CA 90731,33.76254,-118.298393
Magnolia Science Academy #7,91325,K- 5,XR,3-Scott M Schmerelson,18355 Roscoe Blvd Northridge CA 91325,34.2211656,-118.5335916
Manhattan Place Elementary,90047,K- 5,W,1-Dr George J McKenna III,1850 W 96th St Los Angeles CA 90047,33.9484547,-118.3107152
PUC Excel Academy,90031,6- 8,XR,2-Monica Garcia,1855 N Main St Los Angeles CA 90031,34.066599200000006,-118.219859
Sherman Oaks Center for Enriched Studies (SOCES) Magnet,91335,4-12,NW,3-Scott M Schmerelson,18605 Erwin St Reseda CA 91335,34.1841724,-118.5384563
Gaspar de Portola CM - Academy of Integrated Arts & Tech,91356,6- 8,NW,4-Nick Melvoin,18720 Linnet St Tarzana CA 91356,34.167244200000006,-118.542088
Calahan Street Elementary,91324,K- 5,NW,3-Scott M Schmerelson,18722 Knapp St Northridge CA 91324,34.237967700000006,-118.5417004
Blythe Street Elementary,91335,K- 5,NW,3-Scott M Schmerelson,18730 Blythe St Reseda CA 91335,34.2145059,-118.5417113
John R Wooden High School,91335,9-12,NW,3-Scott M Schmerelson,18741 Elkwood St Reseda CA 91335,34.2130073,-118.5419911
Towne Avenue Elementary,90746,K- 5,S,7-Dr Richard A Vladovic,18924 Towne Ave Carson CA 90746,33.8583275,-118.2674172
Castlebay Lane Charter,91326,K- 5,NW,3-Scott M Schmerelson,19010 Castlebay Ln Porter Ranch CA 91326,34.293679100000006,-118.5475148
Napa Street Elementary,91324,K- 5,NW,3-Scott M Schmerelson,19010 Napa St Northridge CA 91324,34.22552039999999,-118.54751170000002
Vanalden Avenue Elementary,91335,K- 5,NW,3-Scott M Schmerelson,19019 Delano St Reseda CA 91335,34.18272329999999,-118.546977
Diane S Leichman Career Preparatory and Transition Center,91335,9-12,NW,3-Scott M Schmerelson,19034 Gault St Reseda CA 91335,34.198383,-118.548334
Gridley Street Elementary,91340,K- 5,NE,6-Kelly Gonez,1907 8th St San Fernando CA 91340,34.3026261,-118.4290806
Franklin Avenue Elementary,90027,K- 5,C,5-Jackie Goldberg,1910 N Commonwealth Ave Los Angeles CA 90027,34.1059365,-118.2849569
Beckford Charter for Enriched Studies,91326,K- 5,NW,3-Scott M Schmerelson,19130 Tulsa St Northridge CA 91326,34.267732,-118.5488308
New Los Angeles Charter School,90016,6- 8,XR,1-Dr George J McKenna III,1919 S Burnside Ave Los Angeles CA 90016,34.0405831,-118.3580205
Santee Education Complex,90011,9-12,C,2-Monica Garcia,1921 S Maple Ave Los Angeles CA 90011,34.0290276,-118.2628492
Frida Kahlo Continuation High,90011,9-12,C,2-Monica Garcia,1924 S Los Angeles St Los Angeles CA 90011,34.0298149,-118.2637857
Sophia T Salvin Special Education Center,90007,K- 9,C,2-Monica Garcia,1925 Budlong Ave Los Angeles CA 90007,34.0395444,-118.2962414
University Preparatory Value High,90006,9- 9,XR,2-Monica Garcia,1929 W Pico Blvd Los Angeles CA 90006,34.046741100000006,-118.2808919
Leapwood Elementary,90746,K- 5,S,7-Dr Richard A Vladovic,19302 Leapwood Ave Carson CA 90746,33.8561726,-118.2615702
Grape Street Elementary,90059,K- 5,S,7-Dr Richard A Vladovic,1940 E 111th St Los Angeles CA 90059,33.9340901,-118.2379518
Annalee Avenue Elementary,90746,K- 6,S,7-Dr Richard A Vladovic,19410 S Annalee Ave Carson CA 90746,33.8541809,-118.25186200000002
2nd Street Elementary,90033,K- 6,E,2-Monica Garcia,1942 E 2nd St Los Angeles CA 90033,34.0448464,-118.2167062
Broadacres Avenue Elementary,90746,K- 5,S,7-Dr Richard A Vladovic,19424 S Broadacres Ave Carson CA 90746,33.8541865,-118.2395509
Sven Lokrantz Special Education Center,91335,K- 8,NW,3-Scott M Schmerelson,19451 Wyandotte St Reseda CA 91335,34.203708,-118.556953
Shirley Avenue Elementary,91335,K- 5,NW,3-Scott M Schmerelson,19452 Hart St Reseda CA 91335,34.19608300000001,-118.557113
Crestwood Street Elementary,90275,K- 5,S,7-Dr Richard A Vladovic,1946 W Crestwood St Rancho Palos Verdes CA 90275,33.749528000000005,-118.3126454
Chapman Elementary,90249,K- 5,S,7-Dr Richard A Vladovic,1947 Marine Ave Gardena CA 90249,33.8951949,-118.3131812
Florence Griffith Joyner Elem Visual/Perf Arts Magnet,90002,1- 5,S,7-Dr Richard A Vladovic,1963 E 103rd St Los Angeles CA 90002,33.943524,-118.23740359999998
Chime Institute'S Schwarzenegger Community School,91364,K- 8,XR,4-Nick Melvoin,19722 Collier St Woodland Hills CA 91364,34.1655378,-118.562994
Calvert Charter for Enriched Studies,91367,K- 5,NW,4-Nick Melvoin,19850 Delano St Woodland Hills CA 91367,34.181774,-118.565165
Ivy Bound Academy M/S/T Charter Middle School #2,91324,5- 7,XR,3-Scott M Schmerelson,20040 Parthenia St Northridge CA 91324,34.2278972,-118.5702232
Academy of Media Arts,90062,9- 9,XR,1-Dr George J McKenna III,2009 W Martin Luther King Bl Los Angeles CA 90062,34.0112527,-118.3154645
3rd Street Elementary,90004,K- 5,W,1-Dr George J McKenna III,201 S June St Los Angeles CA 90004,34.070545,-118.33500929999998
Norwood Street Elementary,90007,K- 5,C,2-Monica Garcia,2020 Oak St Los Angeles CA 90007,34.0349098,-118.2787451
Alliance Gertz-Ressler Richard Merkin Acad 6-12 Complex,90007,6-12,XR,2-Monica Garcia,2023 Union Av Los Angeles CA 90007,34.036564500000004,-118.2830667
Griffin Avenue Elementary,90031,K- 5,E,2-Monica Garcia,2025 Griffin Ave Los Angeles CA 90031,34.06812710000001,-118.2119542
Alliance Tennenbaum Family Technology High School,90065,9-12,XR,5-Jackie Goldberg,2050 N San Fernando Rd Los Angeles CA 90065,34.102259499999995,-118.23739779999998
Westwood Charter Elementary,90025,K- 5,W,4-Nick Melvoin,2050 Selby Ave Los Angeles CA 90025,34.0473643,-118.429938
24th Street Elementary,90018,K- 4,C,1-Dr George J McKenna III,2055 W 24th St Los Angeles CA 90018,34.035011700000005,-118.3107152
Eagle Rock Elementary,90041,K- 6,C,5-Jackie Goldberg,2057 Fair Park Ave Los Angeles CA 90041,34.136413899999994,-118.2131422
South Shores Elementary Performing Arts Magnet,90732,K- 5,S,7-Dr Richard A Vladovic,2060 W 35th St San Pedro CA 90732,33.7224645,-118.3219489
Sunny Brae Avenue Elementary,91306,K- 5,NW,3-Scott M Schmerelson,20620 Arminta St Winnetka CA 91306,34.21331,-118.582692
KIPP Promesa Preparatory,90063,K- 1,XR,2-Monica Garcia,207 S Dacotah St Los Angeles CA 90063,34.0376077,-118.2017871
Alliance Collins Family College Ready High School,90255,9-12,XR,5-Jackie Goldberg,2071 Saturn Ave Huntington Park CA 90255,33.9775179,-118.2341141
Germain Academy for Academic Achievement,91311,K- 5,NW,3-Scott M Schmerelson,20730 Germain St Chatsworth CA 91311,34.2618776,-118.5846309
Aspire Centennial College Preparatory Academy,90255,6- 7,XR,5-Jackie Goldberg,2079 Saturn Ave Huntington Park CA 90255,33.9774403,-118.2338801
Woodland Hills Academy,91367,6- 8,NW,4-Nick Melvoin,20800 Burbank Blvd Woodland Hills CA 91367,34.170387,-118.586746
156th Street Elementary,90249,K- 6,S,7-Dr Richard A Vladovic,2100 W 156th St Gardena CA 90249,33.88894459999999,-118.3168838
Multnomah Street Elementary Gifted Magnet,90032,2- 5,E,2-Monica Garcia,2101 N Indiana Ave Los Angeles CA 90032,34.0686034,-118.1933102
Hart Street Elementary,91303,K- 5,NW,3-Scott M Schmerelson,21040 Hart St Canoga Park CA 91303,34.19663,-118.591693
William Tell Aggeler Opportunity High School,91311,7-12,NW,3-Scott M Schmerelson,21050 Plummer St Chatsworth CA 91311,34.2424216,-118.5924417
Alliance College Ready Middle Academy #5,90031,6- 8,XR,2-Monica Garcia,211 S Avenue 20 Los Angeles CA 90031,34.0722263,-118.2204073
74th Street Elementary,90047,K- 5,W,1-Dr George J McKenna III,2112 W 74th St Los Angeles CA 90047,33.97249420000001,-118.3159668
Leland Street Elementary,90731,K- 5,S,7-Dr Richard A Vladovic,2120 S Leland St San Pedro CA 90731,33.724661600000005,-118.3008508
Del Amo Elementary,90745,K- 5,S,7-Dr Richard A Vladovic,21228 Water St Carson CA 90745,33.8377089,-118.240205
Dominguez Elementary,90810,K- 5,S,7-Dr Richard A Vladovic,21250 Santa Fe Ave Carson CA 90810,33.835943,-118.2145868
New Academy Canoga Park,91303,K- 5,XR,3-Scott M Schmerelson,21425 Cohasset St Canoga Park CA 91303,34.2070675,-118.5982344
Commonwealth Avenue Elementary Gifted Arts/Tech Magnet,90004,2- 5,C,2-Monica Garcia,215 S Commonwealth Ave Los Angeles CA 90004,34.070664,-118.285935
Clifford Street Math & Technology Magnet,90039,K- 5,C,5-Jackie Goldberg,2150 Duane St Los Angeles CA 90039,34.0893198,-118.2581587
Halldale Elementary,90501,K- 5,S,7-Dr Richard A Vladovic,21514 Halldale Ave Torrance CA 90501,33.8329686,-118.3013075
Andrew Carnegie Middle School,90745,6- 8,S,7-Dr Richard A Vladovic,21820 Bonita St Carson CA 90745,33.83015779999999,-118.258601
Bonita Street Elementary,90745,K- 5,S,7-Dr Richard A Vladovic,21929 Bonita St Carson CA 90745,33.8282352,-118.25988
Cahuenga Elementary,90004,K- 5,C,2-Monica Garcia,220 S Hobart Blvd Los Angeles CA 90004,34.070565,-118.3052203
Chatsworth Park Elementary UP/CD Magnet,91311,K- 5,NW,3-Scott M Schmerelson,22005 Devonshire St Chatsworth CA 91311,34.2578278,-118.6069343
New Heights Charter School,90008,K- 8,XR,1-Dr George J McKenna III,2202 W Ml King Jr Blvd Los Angeles CA 90008,34.010639399999995,-118.3176793
Topanga Elementary Charter School,90290,K- 5,W,4-Nick Melvoin,22075 Topanga School Rd Topanga CA 90290,34.092144899999994,-118.6039338
Central City Value School,90004,9-12,XR,2-Monica Garcia,221 N Westmoreland Ave Los Angeles CA 90004,34.075094,-118.288617
City of Angels Independent Studies,90063,K-12,XS,2-Monica Garcia,221 S Eastman Ave Los Angeles CA 90063,34.0339047,-118.1859983
Allesandro Elementary,90039,K- 5,C,5-Jackie Goldberg,2210 Riverside Dr Los Angeles CA 90039,34.1019317,-118.2518711
William J Johnston Community Day School,90731,7-12,S,7-Dr Richard A Vladovic,2210 Taper Ave San Pedro CA 90731,33.76537630000001,-118.2994046
Stephen M White Middle School,90745,6- 8,S,7-Dr Richard A Vladovic,22102 S Figueroa St Carson CA 90745,33.8262917,-118.2855761
Lomita Elementary Math/Science/Technology Magnet,90717,K- 5,S,7-Dr Richard A Vladovic,2211 247th St Lomita CA 90717,33.8009926,-118.3204304
Glassell Park Elementary STEAM Magnet,90065,K- 5,C,5-Jackie Goldberg,2211 W Avenue 30 Los Angeles CA 90065,34.1045093,-118.2366336
Nevada Avenue Elementary,91304,K- 5,NW,3-Scott M Schmerelson,22120 Chase St West Hills CA 91304,34.2238057,-118.6074703
Woodland Hills Charter Elementary for Enriched Studies,91364,K- 5,NW,4-Nick Melvoin,22201 San Miguel St Woodland Hills CA 91364,34.1590551,-118.6103884
Mark Twain Middle School,90066,6- 8,W,4-Nick Melvoin,2224 Walgrove Ave Los Angeles CA 90066,33.9998229,-118.4480037
Dorris Place Elementary,90031,K- 6,C,5-Jackie Goldberg,2225 Dorris Pl Los Angeles CA 90031,34.09127,-118.238638
Christopher Columbus Middle School,91304,6- 8,NW,3-Scott M Schmerelson,22250 Elkwood St Canoga Park CA 91304,34.211755,-118.6111062
Extera Public School,90033,K- 5,XR,2-Monica Garcia,2226 E 3rd St Los Angeles CA 90033,34.04262,-118.213019
Carson Senior High - Academy of Education and Empowerment,90745,9-12,S,7-Dr Richard A Vladovic,22328 S Main St Carson CA 90745,33.82380429999999,-118.2755152
Caroldale Learning Community,90745,K- 8,S,7-Dr Richard A Vladovic,22424 Caroldale Ave Carson CA 90745,33.8225625,-118.28349540000002
Charles H Kim Elementary School,90004,K- 5,C,2-Monica Garcia,225 S Oxford Ave Los Angeles CA 90004,34.070268299999995,-118.3082636
Dolores Street Elementary,90745,K- 5,S,7-Dr Richard A Vladovic,22526 Dolores St Carson CA 90745,33.8214287,-118.2720078
Hamlin Charter Academy,91307,K- 5,NW,3-Scott M Schmerelson,22627 Hamlin St West Hills CA 91307,34.189829,-118.619992
Eagle Tree Continuation High,90745,9-12,S,7-Dr Richard A Vladovic,22628 S Main St Carson CA 90745,33.8203628,-118.2752504
Animo College Preparatory Academy,90002,9-12,XR,7-Dr Richard A Vladovic,2265 E 103rd St Los Angeles CA 90002,33.9449522,-118.229728
Enadia Way Technology Charter,91307,K- 5,NW,3-Scott M Schmerelson,22944 Enadia Way West Hills CA 91307,34.1996611,-118.627345
MacArthur Park Elementary Visual and Performing Arts,90057,K- 5,C,2-Monica Garcia,2300 W 7th St Los Angeles CA 90057,34.05753729999999,-118.279533
Joseph Pomeroy Widney Career Preparatory & Transition Center,90018,10-12,C,1-Dr George J McKenna III,2302 S Gramercy Pl Los Angeles CA 90018,34.0358401,-118.3129751
New Designs,90007,6-12,XR,2-Monica Garcia,2303 S Figueroa St Los Angeles CA 90007,34.0301169,-118.2748086
Calabash Charter Academy,91364,K- 5,NW,4-Nick Melvoin,23055 Eugene St Woodland Hills CA 91364,34.158581,-118.629491
Ramona Opportunity High School,90063,7-12,E,2-Monica Garcia,231 S Alma Ave Los Angeles CA 90063,34.03403529999999,-118.19113020000002
Woodlake Elementary Community Charter,91367,K- 5,NW,3-Scott M Schmerelson,23231 Hatteras St Woodland Hills CA 91367,34.1763054,-118.6333621
232nd Place Elementary,90745,K- 5,S,7-Dr Richard A Vladovic,23240 Archibald Ave Carson CA 90745,33.814467,-118.282311
Frank Lanterman High School,90007,9-11,C,2-Monica Garcia,2328 St James Pl Los Angeles CA 90007,34.03198629999999,-118.2784311
Justice Street Academy Charter,91304,K- 5,NW,3-Scott M Schmerelson,23350 Justice St West Hills CA 91304,34.2155285,-118.6357194
Samuel Gompers Middle School,90061,6- 8,S,7-Dr Richard A Vladovic,234 E 112th St Los Angeles CA 90061,33.93287720000001,-118.2705623
Los Angeles Leadership Academy Charter School,90031,6-12,XR,2-Monica Garcia,234 E Avenue 33 Los Angeles CA 90031,34.0831975,-118.2105834
Welby Way Charter Elementary and Gifted-High Ability Magnet,91307,K- 5,NW,3-Scott M Schmerelson,23456 Welby Way West Hills CA 91307,34.191624,-118.637774
Catskill Avenue Elementary,90745,K- 5,S,7-Dr Richard A Vladovic,23536 Catskill Ave Carson CA 90745,33.8116,-118.27079740000002
Vernon City Elementary,90058,K- 6,E,5-Jackie Goldberg,2360 E Vernon Ave Los Angeles CA 90058,34.0035091,-118.2312358
George Ellery Hale Charter Academy,91367,6- 8,NW,3-Scott M Schmerelson,23830 Califa St Woodland Hills CA 91367,34.1772223,-118.6455305
Charles White Elementary School,90057,1- 5,C,2-Monica Garcia,2401 Wilshire Blvd Los Angeles CA 90057,34.0603794,-118.2797525
Academia Moderna,90255,K- 5,XR,5-Jackie Goldberg,2410 Broadway Walnut Park CA 90255,33.9665903,-118.229728
Middleton Street Primary Center,90255,K- 1,E,5-Jackie Goldberg,2410 Zoe Ave Huntington Park CA 90255,33.9789059,-118.2291798
Marvin Elementary,90016,K- 5,W,1-Dr George J McKenna III,2411 Marvin Ave Los Angeles CA 90016,34.035593,-118.364317
Mayberry Street Elementary Communication Arts Magnet,90026,5- 5,C,5-Jackie Goldberg,2414 Mayberry St Los Angeles CA 90026,34.084211200000006,-118.26495049999998
Roscomare Road Elementary,90077,K- 5,W,4-Nick Melvoin,2425 Roscomare Rd Los Angeles CA 90077,34.11958920000001,-118.4640206
Nathaniel Narbonne Senior High,90710,9-12,S,7-Dr Richard A Vladovic,24300 S Western Ave Harbor City CA 90710,33.8036845,-118.3065119
Shenandoah Street Elementary,90034,K- 5,W,1-Dr George J McKenna III,2450 Shenandoah St Los Angeles CA 90034,34.038507,-118.384125
George S Patton Continuation High,90710,9-12,S,7-Dr Richard A Vladovic,24514 S Western Ave Harbor City CA 90710,33.802124,-118.307244
Leo Politi Elementary,90006,K- 5,C,2-Monica Garcia,2481 W 11th St Los Angeles CA 90006,34.050999,-118.286892
Broad Avenue Elementary,90744,K- 5,S,7-Dr Richard A Vladovic,24815 Broad Ave Wilmington CA 90744,33.8014525,-118.2627122
Scholarship Prep South Bay,90744,K- 8,XR,7-Dr Richard A Vladovic,24910 S Avalon Bl Wilmington CA 90744,33.799742200000004,-118.2636078
Port of Los Angeles High School,90731,9-12,XR,7-Dr Richard A Vladovic,250 W 5th St San Pedro CA 90731,33.740444200000006,-118.2825819
Pueblo De Los Angeles Continuation High,90031,9-12,E,2-Monica Garcia,2506 Alta St Los Angeles CA 90031,34.0760455,-118.2037406
Hollenbeck Middle School,90023,6- 8,E,2-Monica Garcia,2510 E 6th St Los Angeles CA 90023,34.0365754,-118.2121738
Alexander Fleming Middle School,90717,6- 8,S,7-Dr Richard A Vladovic,25425 Walnut St Lomita CA 90717,33.7923726,-118.3138226
Utah Street Elementary,90033,K- 8,E,2-Monica Garcia,255 Gabriel Garcia Marquez St Los Angeles CA 90033,34.048499,-118.224714
Boyle Heights HS STEM Magnet,90023,9-12,E,2-Monica Garcia,2550 E 6th St Los Angeles CA 90023,34.0368456,-118.2098906
Renaissance Arts Academy,90065,6-12,XR,5-Jackie Goldberg,2558 N San Fernando Rd Los Angeles CA 90065,34.1080318,-118.2417895
Southeast Middle School DREAMS Magnet,90280,6- 8,E,5-Jackie Goldberg,2560 Tweedy Blvd South Gate CA 90280,33.9458132,-118.2249763
Aspire Pacific Academy,90255,10-12,XR,5-Jackie Goldberg,2565 58th St Huntington Park CA 90255,33.9904148,-118.2260729
Eshelman Avenue Elementary,90717,K- 5,S,7-Dr Richard A Vladovic,25902 Eshelman Ave Lomita CA 90717,33.7878624,-118.3142772
Dolores Huerta Elementary School,90011,K- 5,C,2-Monica Garcia,260 E 31st St Los Angeles CA 90011,34.0191593,-118.2684527
Cienega Elementary,90016,K- 5,W,1-Dr George J McKenna III,2611 S Orange Dr Los Angeles CA 90016,34.031958,-118.3537021
Angeles Mesa Elementary,90043,K- 5,W,1-Dr George J McKenna III,2611 W 52nd St Los Angeles CA 90043,33.9956571,-118.3221316
Stella Elementary Charter Academy,90016,K- K,XR,1-Dr George J McKenna III,2636 S Mansfield Av Los Angeles CA 90016,34.031560299999995,-118.3523587
Walnut Park Elementary DL Two-Way Im Spanish,90255,K- 2,E,5-Jackie Goldberg,2642 E Olive St Huntington Park CA 90255,33.96761559999999,-118.2238341
Pacific Boulevard School,90255,K- 5,E,5-Jackie Goldberg,2660 E 57th St Huntington Pk CA 90255,33.9908456,-118.223697
Farmdale Elementary,90032,K- 5,E,2-Monica Garcia,2660 Ruth Swiggett Dr Los Angeles CA 90032,34.0778922,-118.17978290000002
Prepa Tec Los Angeles,90255,6- 7,XR,5-Jackie Goldberg,2665 Clarendon Ave Huntington Park CA 90255,33.983729,-118.2234
Los Angeles Leadership Primary Academy,90031,K- 3,XR,2-Monica Garcia,2670 Griffin Ave Los Angeles CA 90031,34.0785674,-118.2114972
Simon Rodia Continuation High,90280,9-12,E,5-Jackie Goldberg,2701 Sequoia Dr South Gate CA 90280,33.942449,-118.2231944
Los Feliz Charter School for the Arts,90065,K- 6,XR,5-Jackie Goldberg,2709 E Media Center Dr Los Angeles CA 90065,34.1107058,-118.2452582
South East Senior High,90280,9-12,E,5-Jackie Goldberg,2720 Tweedy Blvd South Gate CA 90280,33.9454365,-118.2219277
Equitas Academy 2,90005,5- 5,XR,2-Monica Garcia,2723 W 8th St Los Angeles CA 90005,34.0580651,-118.2849472
Hoover Street Elementary,90005,K- 5,C,2-Monica Garcia,2726 Francis Ave Los Angeles CA 90005,34.0565545,-118.2858247
Liberty Boulevard Elementary,90280,K- 5,E,5-Jackie Goldberg,2728 Liberty Blvd South Gate CA 90280,33.961315899999995,-118.2220978
Evergreen Avenue Elementary,90033,K- 6,E,2-Monica Garcia,2730 Ganahl St Los Angeles CA 90033,34.0522869,-118.197423
Carmen Lomas Garza Primary Center,90023,K- 2,E,2-Monica Garcia,2750 E Hostetter St Los Angeles CA 90023,34.0244623,-118.2181684
Willow Elementary,90280,K- 5,E,5-Jackie Goldberg,2777 Willow Pl South Gate CA 90280,33.9552914,-118.2220261
Rudecinda Sepulveda Dodson Middle School,90275,6- 8,S,7-Dr Richard A Vladovic,28014 Montereina Dr Rancho Palos Verdes CA 90275,33.766016,-118.315592
28th Street Elementary,90011,K- 5,C,2-Monica Garcia,2807 Stanford Ave Los Angeles CA 90011,34.01854829999999,-118.2612048
KIPP Los Angeles College Preparatory,90023,5- 8,XR,2-Monica Garcia,2810 Whittier Blvd Los Angeles CA 90023,34.0312389,-118.209441
1st Street Elementary,90033,K- 6,E,2-Monica Garcia,2820 E First St Los Angeles CA 90033,34.040862,-118.2045698
Sunrise Elementary,90023,K- 6,E,2-Monica Garcia,2821 E 7th St Los Angeles CA 90023,34.029607,-118.2102864
Ivanhoe Elementary,90039,K- 5,C,5-Jackie Goldberg,2828 Herkimer St Los Angeles CA 90039,34.1087883,-118.2668997
Stanford Avenue Elementary,90280,1- 5,E,5-Jackie Goldberg,2833 Illinois Ave South Gate CA 90280,33.950838899999994,-118.220305
El Sereno Middle School Gifted Magnet,90032,6- 8,E,2-Monica Garcia,2839 N Eastern Ave Los Angeles CA 90032,34.0799751,-118.1784101
Henry T Gage Middle School,90255,6- 8,E,5-Jackie Goldberg,2880 E Gage Ave Huntington Park CA 90255,33.98103820000001,-118.2180313
Vista Charter Middle School,90026,6- 8,XR,2-Monica Garcia,2900 W Temple St Los Angeles CA 90026,34.0738866,-118.2787451
San Antonio Continuation High,90255,9-12,E,5-Jackie Goldberg,2911 Belgrave Ave Huntington Park CA 90255,33.987632700000006,-118.2171988
Virginia Road Elementary,90016,K- 5,W,1-Dr George J McKenna III,2925 Virginia Rd Los Angeles CA 90016,34.028156700000004,-118.3397646
Alliance Leichtman-Levine FFES High,90065,9-12,XR,5-Jackie Goldberg,2930 Fletcher Dr Los Angeles CA 90065,34.1138929,-118.2466778
Alliance Renee & Meyer Luskin Academy High School,90043,9-12,XR,1-Dr George J McKenna III,2941 W 70th St Los Angeles CA 90043,33.9766229,-118.3258838
Alexander Hamilton Senior High,90034,9-12,W,1-Dr George J McKenna III,2955 S Robertson Blvd Los Angeles CA 90034,34.034135,-118.391615
Dr Maya Angelou Community Senior High,90011,9-12,C,7-Dr Richard A Vladovic,300 E 53rd St Los Angeles CA 90011,33.9940398,-118.2679653
Orthopaedic Hospital Senior High Medical Magnet,90007,9-12,C,2-Monica Garcia,300 W 23rd St Los Angeles CA 90007,34.0288436,-118.2712109
Washington Irving Middle School Math Music Engineering Mag,90065,6- 8,C,5-Jackie Goldberg,3010 Estara Ave Los Angeles CA 90065,34.1157592,-118.2411035
Stanford Avenue Primary Center Elementary DL Two-Way Im Span,90280,K- K,E,5-Jackie Goldberg,3020 Kansas Av South Gate CA 90280,33.9484035,-118.2176201
John W Mack Elementary,90007,K- 5,C,1-Dr George J McKenna III,3020 S Catalina St Los Angeles CA 90007,34.0264362,-118.2934521
Rise Kohyang Middle,90010,6- 7,XR,2-Monica Garcia,3020 Wilshire Bl 2nd Fl Los Angeles CA 90010,34.061105600000005,-118.287469
Whitney Young Continuation High,90043,9-12,W,1-Dr George J McKenna III,3051 W 52nd St Los Angeles CA 90043,33.9951621,-118.3261407
Ernest P Willenberg Special Education Center,90732,6-12,S,7-Dr Richard A Vladovic,308 Weymouth Ave San Pedro CA 90732,33.7395483,-118.3091753
Gratts Learning Academy for Young Scholars (GLAYS),90017,2- 6,C,2-Monica Garcia,309 Lucas Ave Los Angeles CA 90017,34.0583434,-118.2625033
Lafayette Park Primary Center,90057,K- K,C,2-Monica Garcia,310 S La Fayette Park Pl Los Angeles CA 90057,34.0664029,-118.280595
Watts Learning Center School,90003,K- 5,XR,7-Dr Richard A Vladovic,310 W 95th St Los Angeles CA 90003,33.94981729999999,-118.2788314
6th Avenue Elementary,90018,K- 5,W,1-Dr George J McKenna III,3109 6th Ave Los Angeles CA 90018,34.02663,-118.324179
Belvedere Middle School,90063,6- 8,E,2-Monica Garcia,312 N Record Ave Los Angeles CA 90063,34.039318,-118.180466
Young Empowered Scholars Academy,90043,K- 5,W,1-Dr George J McKenna III,3140 Hyde Park Blvd Los Angeles CA 90043,33.9802848,-118.3283866
Mid-City's Prescott School of Enriched Sciences,90018,1- 5,W,1-Dr George J McKenna III,3150 W Adams Blvd Los Angeles CA 90018,34.0326395,-118.3183123
Garvanza Elementary Technology/Leadership Magnet,90042,K- 5,C,5-Jackie Goldberg,317 N Avenue 62 Los Angeles CA 90042,34.11787329999999,-118.182525
Sierra Park Elementary,90032,K- 6,E,2-Monica Garcia,3170 Budau Ave Los Angeles CA 90032,34.082312200000004,-118.1690883
Ambler Avenue Elementary Gifted Magnet,90746,1- 5,S,7-Dr Richard A Vladovic,319 E Sherman Dr Carson CA 90746,33.877738,-118.2715005
Ednovate- Esperanza College Prep,90022,9- 9,XR,2-Monica Garcia,319 N Humphreys Ave Los Angeles CA 90022,34.038931,-118.17147659999998
Malabar Street Elementary,90063,K- 6,E,2-Monica Garcia,3200 E Malabar St Los Angeles CA 90063,34.044251,-118.1943156
Carson-Gore Elementary DL Two-Way Im Spanish,90018,K- K,W,1-Dr George J McKenna III,3200 W Washington Bl Los Angeles CA 90018,34.0394287,-118.3193004
RFK Comm Schls - Ambassador Sch - Glbl Ed DL One-Way Im Span,90005,K- 5,C,2-Monica Garcia,3201 W 8th St Los Angeles CA 90005,34.05828579999999,-118.2974124
Math and Science College Preparatory,90018,9- 9,XR,1-Dr George J McKenna III,3202 W Adams Bl Los Angeles CA 90018,34.03223920000001,-118.3190075
San Pedro Senior High Marine Science/Tech/Math Magnet,90731,9-12,S,7-Dr Richard A Vladovic,3210 S Alma St San Pedro CA 90731,33.7165066,-118.29859740000002
State Street Elementary,90280,K- 5,E,5-Jackie Goldberg,3211 Santa Ana St South Gate CA 90280,33.963896000000005,-118.21206200000002
Miguel Contreras Learning Complex - Acdemic Ldrshp Community,90017,9-12,C,2-Monica Garcia,322 Lucas Ave Los Angeles CA 90017,34.0577989,-118.2611134
Albion Street Elementary,90031,K- 6,E,2-Monica Garcia,322 S Avenue 18 Los Angeles CA 90031,34.0691474,-118.2204758
Lucille Roybal-Allard Elementary,90255,K- 6,E,5-Jackie Goldberg,3232 Saturn Ave Huntington Park CA 90255,33.9758816,-118.2098261
Alain Leroy Locke College Preparatory Academy,90061,9-12,XR,7-Dr Richard A Vladovic,325 E 111th St Los Angeles CA 90061,33.935105,-118.2686505
Atwater Avenue Elementary,90039,K- 6,C,5-Jackie Goldberg,3271 Silver Lake Blvd Los Angeles CA 90039,34.115704,-118.254944
93rd Street Elementary,90003,K- 6,S,7-Dr Richard A Vladovic,330 E 93rd St Los Angeles CA 90003,33.951096,-118.268202
Harvard Elementary DL Two-Way Im Spanish,90004,K- K,W,2-Monica Garcia,330 N Harvard Bl Los Angeles CA 90004,34.0772018,-118.3042303
Florence Nightingale Middle School Gifted STEM Magnet,90065,6- 8,E,5-Jackie Goldberg,3311 N Figueroa St Los Angeles CA 90065,34.08773100000001,-118.219127
Victoria Avenue Elementary,90280,K- 5,E,5-Jackie Goldberg,3320 Missouri Ave South Gate CA 90280,33.946425899999994,-118.21090320000002
Mar Vista Elementary,90066,K- 5,W,4-Nick Melvoin,3330 Granville Ave Los Angeles CA 90066,34.0161068,-118.4344252
Point Fermin Elementary Marine Science Magnet,90731,K- 5,S,7-Dr Richard A Vladovic,3333 Kerckhoff Ave San Pedro CA 90731,33.7139196,-118.2904377
Gates Street Elementary,90031,K- 5,E,2-Monica Garcia,3333 Manitou Ave Los Angeles CA 90031,34.073435,-118.205937
Fletcher Drive Elementary,90065,K- 5,C,5-Jackie Goldberg,3350 Fletcher Dr Los Angeles CA 90065,34.1174927,-118.2396955
South Gate Senior High,90280,9-12,E,5-Jackie Goldberg,3351 Firestone Blvd South Gate CA 90280,33.9560708,-118.2093189
Camino Nuevo Charter Academy #2,90020,K- 8,XR,2-Monica Garcia,3400 W 3rd St Los Angeles CA 90020,34.0685541,-118.2888849
Loreto Street Elementary,90065,K- 5,E,5-Jackie Goldberg,3408 Arroyo Seco Ave Los Angeles CA 90065,34.086726299999995,-118.21634070000002
Glen Alta Elementary,90031,K- 8,E,2-Monica Garcia,3410 Sierra St Los Angeles CA 90031,34.0851497,-118.1995251
ISANA Nascent Academy,90018,K- 8,XR,1-Dr George J McKenna III,3417 W Jefferson Blvd Los Angeles CA 90018,34.025868200000005,-118.33334340000002
Ednovate-East College Prep,90071,9- 9,XR,2-Monica Garcia,350 S Figueroa St Los Angeles CA 90071,34.053718,-118.2550016
Animo Jackie Robinson,90007,9-12,XR,2-Monica Garcia,3500 S Hill St Los Angeles CA 90007,34.0172741,-118.2753632
Camino Nuevo High School #2,90004,9-12,XR,2-Monica Garcia,3500 W Temple St Los Angeles CA 90004,34.0764139,-118.2858476
Lincoln ESP Magnet,90031,9-12,E,2-Monica Garcia,3501 N Broadway Los Angeles CA 90031,34.074706799999994,-118.2040366
Palms Elementary,90034,K- 5,W,1-Dr George J McKenna III,3520 Motor Ave Los Angeles CA 90034,34.0263501,-118.4079582
Harrison Street Elementary,90063,K- 6,E,2-Monica Garcia,3529 City Terrace Dr Los Angeles CA 90063,34.0537888,-118.1889688
Susan Miller Dorsey Senior High Law/Public Srv/Pol Srv Mag,90016,9-12,W,1-Dr George J McKenna III,3537 Farmdale Ave Los Angeles CA 90016,34.0228135,-118.3463895
Dr Sammy Lee Elementary Medical and Health Science Magnet,90004,K- 5,C,2-Monica Garcia,3600 Council St Los Angeles CA 90004,34.074275,-118.2885651
Maple Primary Center,90011,K- 1,C,2-Monica Garcia,3601 S Maple Ave Los Angeles CA 90011,34.015479,-118.27073
Angel's Gate Continuation High,90731,9-12,S,7-Dr Richard A Vladovic,3607 S Gaffey St San Pedro CA 90731,33.7114309,-118.29295
Loma Vista Elementary,90270,K- 5,E,5-Jackie Goldberg,3629 E 58th St Maywood CA 90270,33.989823,-118.1996165
Beethoven Street Elementary,90066,K- 5,W,4-Nick Melvoin,3711 Beethoven St Los Angeles CA 90066,34.002043900000004,-118.4432782
Belvedere Elementary,90063,K- 5,E,2-Monica Garcia,3724 E First St Los Angeles CA 90063,34.0357588,-118.18627250000002
Gabriella Charter 2,90011,K- 2,XR,2-Monica Garcia,3736 Trinity St Los Angeles CA 90011,34.012117100000005,-118.2693357
Dr Theodore T Alexander Jr Science Center School,90007,K- 5,C,1-Dr George J McKenna III,3737 S Figueroa St Los Angeles CA 90007,34.0170902,-118.2839064
Foshay Learning Center,90018,K-12,C,1-Dr George J McKenna III,3751 S Harvard Blvd Los Angeles CA 90018,34.0192234,-118.306525
Magnolia Science Academy #6,90034,6- 8,XR,1-Dr George J McKenna III,3754 Dunn Dr Los Angeles CA 90034,34.0240419,-118.4001763
KIPP Pueblo Unido,90270,K- K,XR,-,3759 E 57th St Maywood CA 90270,33.9908584,-118.1964177
New Academy of Science & Arts,90017,K- 5,XR,2-Monica Garcia,379 S Loma Dr Los Angeles CA 90017,34.059301700000006,-118.2669604
Corona Avenue Elementary,90201,1- 5,E,5-Jackie Goldberg,3825 Bell Ave Bell CA 90201,33.9757126,-118.1976287
El Sereno Elementary,90032,K- 6,E,5-Jackie Goldberg,3838 Rosemead Ave Los Angeles CA 90032,34.0899751,-118.17721670000002
Thomas Bradley Global Awareness Magnet,90008,K- 5,W,1-Dr George J McKenna III,3875 Dublin Ave Los Angeles CA 90008,34.015156299999994,-118.3225882
Carpenter Community Charter,91604,K- 5,NE,3-Scott M Schmerelson,3909 Carpenter Ave Studio City CA 91604,34.1411016,-118.392257
Accelerated Charter Elementary,90037,K- 6,XR,2-Monica Garcia,3914 S Main St Los Angeles CA 90037,34.011432,-118.273685
Ednovate - USC Hybrid High College Prep,90037,9-10,XR,2-Monica Garcia,3939 S Vermont Ave Los Angeles CA 90037,34.0137215,-118.2916956
John Marshall Senior High Gifted Magnet,90027,9-12,C,5-Jackie Goldberg,3939 Tracy St Los Angeles CA 90027,34.1077961,-118.2771922
Grand View Boulevard Elementary DL Two-Way Im Spanish,90066,K- 5,W,4-Nick Melvoin,3951 Grand View Blvd Los Angeles CA 90066,34.0023667,-118.4295998
Glenfeliz Boulevard Elementary,90039,K- 6,C,5-Jackie Goldberg,3955 Glenfeliz Blvd Los Angeles CA 90039,34.1225096,-118.2675999
James J McBride Special Education Center,90066,6-12,W,4-Nick Melvoin,3960 Centinela Ave Los Angeles CA 90066,34.0012808,-118.4308281
Mount Washington Elementary,90065,K- 6,C,5-Jackie Goldberg,3981 San Rafael Ave Los Angeles CA 90065,34.104808500000004,-118.2159867
Martin Luther King Jr Elementary,90062,K- 5,C,1-Dr George J McKenna III,3989 S Hobart Blvd Los Angeles CA 90062,34.01173970000001,-118.30806640000002
Early College Academy - LA Trade Tech College,90015,9-12,C,2-Monica Garcia,400 W Washington Blvd Los Angeles CA 90015,34.032551500000004,-118.2697468
Wallis Annenberg High School,90037,9-12,XR,7-Dr Richard A Vladovic,4000 S Main St Los Angeles CA 90037,34.010732,-118.2737664
Marlton School,90008,PK-12,W,1-Dr George J McKenna III,4000 Santo Tomas Dr Los Angeles CA 90008,34.0088989,-118.343775
City Language Immersion Charter,90019,K- 2,XR,1-Dr George J McKenna III,4001 Venice Blvd Los Angeles CA 90019,34.0438588,-118.3248781
Ricardo Lizarraga Elementary,90011,K- 5,C,7-Dr Richard A Vladovic,401 E 40th Pl Los Angeles CA 90011,34.0105253,-118.2676913
Robert F Kennedy Elementary,90063,K- 6,E,5-Jackie Goldberg,4010 E Ramboz Drive Los Angeles CA 90063,34.05388060000001,-118.17756640000002
Center for Advanced Learning,90011,K- 5,XR,5-Jackie Goldberg,4016 S Central Ave Los Angeles CA 90011,34.0106285,-118.2557915
Hillcrest Drive Elementary,90008,K- 5,W,1-Dr George J McKenna III,4041 Hillcrest Dr Los Angeles CA 90008,34.013276399999995,-118.347633
122nd Street Elementary,90061,K- 5,S,7-Dr Richard A Vladovic,405 E 122nd St Los Angeles CA 90061,33.922068100000004,-118.2674172
Wilshire Park Elementary School,90005,K- 5,W,2-Monica Garcia,4063 Ingraham St Los Angeles CA 90005,34.06097889999999,-118.3165408
Johnnie L Cochran Jr Middle School,90019,6- 8,W,1-Dr George J McKenna III,4066 W Johnnie Cochran Vista Los Angeles CA 90019,34.0417463,-118.32683490000002
Hancock Park Elementary,90036,K- 5,W,4-Nick Melvoin,408 S Fairfax Ave Los Angeles CA 90036,34.069502,-118.360216
South Gate Middle School,90280,6- 8,E,5-Jackie Goldberg,4100 Firestone Blvd South Gate CA 90280,33.9531625,-118.1981384
Rancho Dominguez Preparatory School,90810,6-12,S,7-Dr Richard A Vladovic,4110 Santa Fe Ave Long Beach CA 90810,33.833734,-118.2159624
Eastman Avenue Elementary,90023,K- 5,E,2-Monica Garcia,4112 E Olympic Blvd Los Angeles CA 90023,34.01724060000001,-118.1847187
Stella Middle Charter Academy,90008,5- 8,XR,1-Dr George J McKenna III,4120 11th Av Los Angeles CA 90008,34.009304799999995,-118.3292111
Manual Arts Senior High,90037,9-12,C,1-Dr George J McKenna III,4131 S Vermont Ave Los Angeles CA 90037,34.0088223,-118.2921733
Global Education Academy,90037,K- 5,XR,1-Dr George J McKenna III,4141 S Figueroa St Los Angeles CA 90037,34.0083565,-118.28313
Menlo Avenue Elementary,90037,K- 5,C,1-Dr George J McKenna III,4156 Menlo Ave Los Angeles CA 90037,34.0077277,-118.2896613
Sheridan Street Elementary,90033,K- 6,E,2-Monica Garcia,416 N Cornwell St Los Angeles CA 90033,34.0502723,-118.2076132
Delevan Drive Elementary,90065,K- 6,C,5-Jackie Goldberg,4168 W Avenue 42 Los Angeles CA 90065,34.1275464,-118.22721509999998
Charles W Barrett Elementary,90003,K- 5,S,1-Dr George J McKenna III,419 W 98th St Los Angeles CA 90003,33.9477666,-118.2810289
4th Street Elementary,90022,2- 5,E,2-Monica Garcia,420 S Amalia Ave Los Angeles CA 90022,34.0286833,-118.15331940000002
Thomas Starr King MS Env Sci/Tech/Engineering/Arts/Math Mag,90029,6- 8,C,5-Jackie Goldberg,4201 Fountain Ave Los Angeles CA 90029,34.0960386,-118.2810289
Canyon Charter Elementary,90402,K- 5,W,4-Nick Melvoin,421 Entrada Dr Santa Monica CA 90402,34.0316972,-118.5121765
Rosemont Avenue Elementary,90026,2- 5,C,2-Monica Garcia,421 N Rosemont Ave Los Angeles CA 90026,34.0723117,-118.2699067
Esteban Torres HS - East Los Angeles Performing Arts Magnet,90063,9-12,E,2-Monica Garcia,4211 Dozier St Los Angeles CA 90063,34.0421073,-118.1752691
Alexandria Avenue Elementary DL Two-Way Im Spanish,90004,K- 1,C,2-Monica Garcia,4211 Oakwood Av Los Angeles CA 90004,34.0777955,-118.2989582
Marianna Avenue Elementary,90063,K- 6,E,2-Monica Garcia,4215 E Gleason St Los Angeles CA 90063,34.035360600000004,-118.1753041
Dixie Canyon Community Charter,91423,K- 5,NE,3-Scott M Schmerelson,4220 Dixie Canyon Ave Sherman Oaks CA 91423,34.1476033,-118.4245706
Barton Hill Elementary,90731,K- 6,S,7-Dr Richard A Vladovic,423 N Pacific Ave San Pedro CA 90731,33.7465033,-118.2882454
42nd Street Elementary,90008,K- 5,W,1-Dr George J McKenna III,4231 4th Ave Los Angeles CA 90008,34.0063961,-118.3217663
Lanai Road Elementary,91436,K- 5,NW,4-Nick Melvoin,4241 Lanai Rd Encino CA 91436,34.148169700000004,-118.4927373
Teresa P Hughes Elementary,90201,K- 6,E,5-Jackie Goldberg,4242 Clara St Cudahy CA 90201,33.9658136,-118.193036
Rio Vista Elementary,91602,K- 5,NE,3-Scott M Schmerelson,4243 Satsuma Ave North Hollywood CA 91602,34.147487899999994,-118.3678219
Bandini Street Elementary,90731,K- 6,S,7-Dr Richard A Vladovic,425 N Bandini St San Pedro CA 90731,33.7464271,-118.2992066
Latona Avenue Elementary,90031,K- 6,E,2-Monica Garcia,4312 Berenice Ave Los Angeles CA 90031,34.09190039999999,-118.2026324
West Vernon Avenue Elementary,90037,K- 5,C,7-Dr Richard A Vladovic,4312 S Grand Ave Los Angeles CA 90037,34.005382,-118.2802731
Bell Senior High Gifted Science/Tech/Eng/Math Magnet,90201,9-12,E,5-Jackie Goldberg,4328 Bell Ave Bell CA 90201,33.9724171,-118.1901373
Sierra Vista Elementary,90032,K- 6,E,5-Jackie Goldberg,4342 Alpha St Los Angeles CA 90032,34.095657,-118.15851200000002
Lockwood Avenue Elementary,90029,K- 6,C,5-Jackie Goldberg,4345 Lockwood Ave Los Angeles CA 90029,34.0890364,-118.2888849
City Terrace Elementary DL Two-Way Im Mandarin,90063,K- 5,E,5-Jackie Goldberg,4350 City Terrace Dr Los Angeles CA 90063,34.056952700000004,-118.1712983
Animo Ellen Ochoa Middle School,90022,6- 8,XR,2-Monica Garcia,4360 Dozier St Los Angeles CA 90022,34.0411044,-118.1717685
Coliseum Street Elementary,90016,K- 5,W,1-Dr George J McKenna III,4400 Coliseum St Los Angeles CA 90016,34.018094500000004,-118.3435476
George Washington Carver Middle School,90011,6- 8,C,5-Jackie Goldberg,4410 Mc Kinley Ave Los Angeles CA 90011,34.003133,-118.2621
Marguerite Poindexter LaMotte Elementary,90037,K- 5,C,1-Dr George J McKenna III,4410 Orchard Ave Los Angeles CA 90037,34.0032485,-118.2885195
KIPP Vida Preparatory Academy,90037,K- 4,XR,1-Dr George J McKenna III,4410 S Budlong Ave Los Angeles CA 90037,34.003387,-118.2956835
Nueva Vista Elementary,90201,K- 6,E,5-Jackie Goldberg,4412 Randolph St Bell CA 90201,33.9809106,-118.1882376
Huntington Drive Elementary,90032,K- 6,E,2-Monica Garcia,4435 N Huntington Dr Los Angeles CA 90032,34.0826932,-118.1918344
Jaime Escalante Elementary School,90201,K- 6,E,5-Jackie Goldberg,4443 Live Oak St Cudahy CA 90201,33.968362,-118.18853500000002
Bryson Avenue Elementary Science/Tech/Math Magnet,90280,1- 5,E,5-Jackie Goldberg,4470 Missouri Ave South Gate CA 90280,33.9446826,-118.1927625
Inner City Education Foundation Vista Elementary Academy,90066,K- 5,XR,4-Nick Melvoin,4471 Inglewood Blvd Los Angeles CA 90066,33.99455220000001,-118.4187063
Ramon C Cortines School of Visual & Performing Arts,90012,9-12,C,2-Monica Garcia,450 N Grand Ave Los Angeles CA 90012,34.0599321,-118.2442108
Woodrow Wilson Senior High,90032,9-12,E,2-Monica Garcia,4500 Multnomah St Los Angeles CA 90032,34.069770500000004,-118.1863639
Normandie Avenue Elementary,90037,K- 5,C,1-Dr George J McKenna III,4505 S Raymond Ave Los Angeles CA 90037,34.002928999999995,-118.299
Walter Reed Middle School,91602,6- 8,NE,3-Scott M Schmerelson,4525 Irvine Ave North Hollywood CA 91602,34.1529566,-118.3860967
Alfonso B Perez Special Education Center,90022,6-12,E,2-Monica Garcia,4540 Michigan Ave Los Angeles CA 90022,34.038796600000005,-118.16804840000002
Toland Way Elementary,90041,K- 6,C,5-Jackie Goldberg,4545 Toland Way Los Angeles CA 90041,34.1212287,-118.2172545
Theodore Roosevelt Senior High,90033,9-12,E,2-Monica Garcia,456 S Mathews St Los Angeles CA 90033,34.0375223,-118.2120058
Lexington Avenue Primary Center,90029,K- 2,C,5-Jackie Goldberg,4564 W Lexington Ave Los Angeles CA 90029,34.0927845,-118.28797140000002
Alliance Alice M Baxter College Ready High School,90731,9-12,XR,7-Dr Richard A Vladovic,461 W 9th St San Pedro CA 90731,33.7357534,-118.2872406
Alliance P & P Neuwirth College Ready High School,90037,9-12,XR,7-Dr Richard A Vladovic,4610 S Main St Los Angeles CA 90037,34.0012848,-118.2738304
Brooklyn Avenue Elementary,90022,K- 8,E,2-Monica Garcia,4620 Cesar Chavez Ave Los Angeles CA 90022,34.0397088,-118.1642065
Los Angeles Senior High,90019,9-12,W,1-Dr George J McKenna III,4650 W Olympic Blvd Los Angeles CA 90019,34.055405,-118.3329852
Monterey Continuation High,90022,9-12,E,2-Monica Garcia,466 S Fraser Ave Los Angeles CA 90022,34.0283414,-118.1588828
4th Street Primary Center,90022,K- 1,E,2-Monica Garcia,469 Amalia Ave Los Angeles CA 90022,34.0272893,-118.15441640000002
View Park Continuation High,90016,9-12,W,1-Dr George J McKenna III,4701 Rodeo Rd Los Angeles CA 90016,34.0213734,-118.3481257
Braddock Drive Elementary,90230,K- 5,W,4-Nick Melvoin,4711 Inglewood Blvd Culver City CA 90230,33.9929575,-118.415503
Anahuacalmecac Int Unv Prep of North America,90032,K-12,XR,2-Monica Garcia,4736 Huntington Dr S Los Angeles CA 90032,34.085066,-118.1814855
Para Los Ninos - Evelyn Thurman Gratts Primary,90017,K- 1,XR,2-Monica Garcia,474 S Hartford Ave Los Angeles CA 90017,34.056217600000004,-118.2639201
Griffith Middle School STEAM Magnet,90022,6- 8,E,2-Monica Garcia,4765 E 4th St Los Angeles CA 90022,34.031282899999994,-118.1620496
KIPP Iluminar Academy,90022,K- 1,XR,2-Monica Garcia,4800 E Cesar Chavez Ave Los Angeles CA 90022,34.0402535,-118.1614097
Arroyo Seco Museum Science Magnet,90042,K- 8,C,2-Monica Garcia,4805 Sycamore Terr Los Angeles CA 90042,34.1024094,-118.2038205
Elizabeth Learning Center,90201,K-12,E,5-Jackie Goldberg,4811 Elizabeth St Cudahy CA 90201,33.963157700000004,-118.1830734
Toluca Lake Elementary,91601,K- 5,NE,4-Nick Melvoin,4840 Cahuenga Blvd North Hollywood CA 91601,34.1592791,-118.3612155
Morris K Hamasaki El Medical/Science Magnet,90022,1- 5,E,2-Monica Garcia,4865 E 1st St Los Angeles CA 90022,34.0373561,-118.16018390000002
George de la Torre Jr Elementary,90744,K- 6,S,7-Dr Richard A Vladovic,500 N Island Ave Wilmington CA 90744,33.7764426,-118.2659004
Humphreys Avenue Elementary,90022,K- 5,E,2-Monica Garcia,500 S Humphreys Ave Los Angeles CA 90022,34.0289434,-118.1708251
Van Ness Avenue Elementary,90004,K- 5,W,4-Nick Melvoin,501 N Van Ness Ave Los Angeles CA 90004,34.0808105,-118.3160769
Puente Charter,90033,K- K,XR,2-Monica Garcia,501 S Boyle Ave Los Angeles CA 90033,34.0415799,-118.2201788
Crenshaw Magnets: Science Tech Engineer Math & Medicine,90043,9-12,W,1-Dr George J McKenna III,5010 11th Ave Los Angeles CA 90043,33.997372,-118.3285655
Serrania Avenue Charter for Enriched Studies,91364,K- 5,NW,4-Nick Melvoin,5014 Serrania Ave Woodland Hills CA 91364,34.160522,-118.587346
Buchanan Street Elementary Science/Tech/Math Magnet,90042,K- 5,C,5-Jackie Goldberg,5024 Buchanan St Los Angeles CA 90042,34.1192482,-118.2063769
Ellen Ochoa Learning Center,90201,K- 8,E,5-Jackie Goldberg,5027 Live Oak St Cudahy CA 90201,33.9678828,-118.1767795
ICEF Innovation Los Angeles Charter,90037,K- 5,XR,1-Dr George J McKenna III,5029 S Vermont Ave Los Angeles CA 90037,33.9975396,-118.291885
Rosewood Avenue Elementary Urban Planning/Design Magnet,90048,K- 5,W,4-Nick Melvoin,503 N Croft Ave Los Angeles CA 90048,34.0806155,-118.37453290000002
Robert A Millikan Charter MS Performing Arts Magnet,91423,6- 8,NE,3-Scott M Schmerelson,5041 Sunnyslope Ave Sherman Oaks CA 91423,34.163518700000004,-118.42848700000002
Nestle Avenue Charter,91356,K- 5,NW,4-Nick Melvoin,5060 Nestle Ave Tarzana CA 91356,34.161862,-118.529913
Dahlia Heights Elementary,90041,K- 6,C,5-Jackie Goldberg,5063 Floristan Ave Los Angeles CA 90041,34.1385373,-118.1991595
Figueroa Street Elementary,90044,K- 5,S,7-Dr Richard A Vladovic,510 W 111th St Los Angeles CA 90044,33.934388,-118.2829473
James A Garfield Senior High,90022,9-12,E,2-Monica Garcia,5101 E 6th St Los Angeles CA 90022,34.0254315,-118.1578239
California Collegiate Charter,90062,6- 7,XR,1-Dr George J McKenna III,5101 S Western Ave Los Angeles CA 90062,33.99659129999999,-118.3094279
Holmes Avenue Elementary,90058,K- 6,E,5-Jackie Goldberg,5108 Holmes Ave Los Angeles CA 90058,33.9957647,-118.2404646
Arts in Action Community Charter,90022,K- 5,XR,2-Monica Garcia,5115 Via Corona St Los Angeles CA 90022,34.032249,-118.155064
Alliance Marc & Eva Stern Math & Science School,90032,9-12,XR,5-Jackie Goldberg,5151 State University Dr Lot2 Los Angeles CA 90032,34.0620391,-118.1736587
KIPP Academy of Innovation,90022,5- 8,XR,2-Monica Garcia,5164 Whittier Blvd Los Angeles CA 90022,34.020335700000004,-118.1581416
Maywood Elementary School,90270,K- 5,E,5-Jackie Goldberg,5200 Cudahy Ave Maywood CA 90270,33.99330560000001,-118.1839875
Kingsley Elementary School,90029,K- 5,W,5-Jackie Goldberg,5200 W Virginia Ave Los Angeles CA 90029,34.0916266,-118.3029287
Wilbur Charter for Enriched Academics,91356,K- 5,NW,4-Nick Melvoin,5213 Crebs Ave Tarzana CA 91356,34.164432,-118.544704
Windsor Hills Elementary Math/Science Aerospace Magnet,90043,K- 5,W,1-Dr George J McKenna III,5215 Overdale Dr Los Angeles CA 90043,33.9957253,-118.3556932
International Studies Learning Center,90280,6-12,E,5-Jackie Goldberg,5225 Tweedy Blvd South Gate CA 90280,33.941267100000005,-118.1789574
North Hollywood Senior High,91601,9-12,NE,3-Scott M Schmerelson,5231 Colfax Ave North Hollywood CA 91601,34.1666154,-118.3895628
Wilshire Crest Elementary,90036,K- 5,W,1-Dr George J McKenna III,5241 W Olympic Blvd Los Angeles CA 90036,34.057988,-118.343595
Cesar Chavez Elementary School,90032,K- 6,E,2-Monica Garcia,5243 Oakland St Los Angeles CA 90032,34.0886468,-118.1680828
Lankershim Elementary,91601,K- 5,NE,3-Scott M Schmerelson,5250 Bakman Ave North Hollywood CA 91601,34.16635,-118.376836
ICEF View Park Preparatory MS,90043,6- 8,XR,1-Dr George J McKenna III,5311 Crenshaw Blvd Los Angeles CA 90043,33.9943634,-118.3311751
ICEF View Park Preparatory ES,90043,K- 5,XR,1-Dr George J McKenna III,5311 S Crenshaw Blvd Los Angeles CA 90043,33.9943633,-118.3312571
Kester Avenue Elementary,91411,K- 5,NE,3-Scott M Schmerelson,5353 Kester Ave Van Nuys CA 91411,34.167579,-118.458537
Amelia Earhart Continuation High School,91601,9-12,NE,3-Scott M Schmerelson,5355 Colfax Ave North Hollywood CA 91601,34.1680679,-118.3880348
Alliance Ouchi-O'Donovan 6-12 Complex,90043,6-12,XR,1-Dr George J McKenna III,5356 S 5th Ave Los Angeles CA 90043,33.993472600000004,-118.3222229
Saturn Street Elementary,90019,K- 5,W,1-Dr George J McKenna III,5360 Saturn St Los Angeles CA 90019,34.046602500000006,-118.3561935
Hawaiian Avenue Elementary,90744,K- 5,S,7-Dr Richard A Vladovic,540 Hawaiian Ave Wilmington CA 90744,33.775751,-118.2761873
New Los Angeles Elementary School,90016,K- 2,XR,1-Dr George J McKenna III,5421 Obama Rd Los Angeles CA 90016,34.022506,-118.365295
Baldwin Hills Elementary,90016,K- 5,W,1-Dr George J McKenna III,5421 Rodeo Rd Los Angeles CA 90016,34.021395299999995,-118.3508326
Monte Vista Street Elementary,90042,1- 5,C,5-Jackie Goldberg,5423 Monte Vista St Los Angeles CA 90042,34.1100939,-118.19826840000002
Henry David Thoreau Continuation High,91364,9-12,NW,4-Nick Melvoin,5429 Quakertown Ave Woodland Hills CA 91364,34.169030600000006,-118.5699724
Bright Star Secondary Academy,90045,9-12,XR,1-Dr George J McKenna III,5431 W 98th St Los Angeles CA 90045,33.9484199,-118.375952
High Tech LA Middle,91411,6- 7,XR,6-Kelly Gonez,5435 Vesper Av Rm B50 Van Nuys CA 91411,34.1695042,-118.4512307
Boyle Heights Continuation High,90033,9-12,E,2-Monica Garcia,544 S Mathews St Los Angeles CA 90033,34.0376714,-118.2112688
El Camino Real Charter High School,91367,9-12,XR,3-Scott M Schmerelson,5440 Valley Circle Blvd Woodland Hills CA 91367,34.1701649,-118.6431457
Animo Westside Charter Middle School,90066,6- 8,XR,4-Nick Melvoin,5456 Mcconnell Ave Los Angeles CA 90066,33.9775312,-118.4185456
William Howard Taft Charter High School,91364,9-12,NW,4-Nick Melvoin,5461 Winnetka Ave Woodland Hills CA 91364,34.1696153,-118.5716823
54th Street Elementary,90043,K- 6,W,1-Dr George J McKenna III,5501 S Eileen Ave Los Angeles CA 90043,33.9919629,-118.34331840000002
Bushnell Way Elementary DL Two-Way Im Spanish,90042,K- 1,C,5-Jackie Goldberg,5507 Bushnell Way Los Angeles CA 90042,34.102383,-118.1890378
East Valley Senior High,91601,9-12,NE,6-Kelly Gonez,5525 Vineland Ave North Hollywood CA 91601,34.1705929,-118.37153290000002
Richard Riordan Primary Center,90042,K- 1,C,5-Jackie Goldberg,5531 Monte Vista St Los Angeles CA 90042,34.1112688,-118.1961206
Open Charter Magnet,90045,K- 5,W,4-Nick Melvoin,5540 W 77th St Los Angeles CA 90045,33.968163200000006,-118.3782891
Yorkdale Elementary,90042,K- 5,C,5-Jackie Goldberg,5657 Meridian St Los Angeles CA 90042,34.120906299999994,-118.1941328
Fishburn Avenue Elementary,90270,K- 5,E,5-Jackie Goldberg,5701 Fishburn Ave Maywood CA 90270,33.989427899999995,-118.191357
ICEF View Park Preparatory HS,90043,9-12,XR,1-Dr George J McKenna III,5701 S Crenshaw Blvd Los Angeles CA 90043,33.9908738,-118.3309995
Tarzana Elementary,91356,K- 5,NW,4-Nick Melvoin,5726 Topeka Dr Tarzana CA 91356,34.1748974,-118.54581609999998
The City School,90016,6- 8,XR,4-Nick Melvoin,5753 Obama Blvd Los Angeles CA 90016,34.0220016,-118.3711378
Richard A Alonzo Community Day School,90028,7-12,W,4-Nick Melvoin,5755 Fountain Ave Los Angeles CA 90028,34.0948999,-118.3151144
Morningside Elementary,91340,K- 5,NE,6-Kelly Gonez,576 N Maclay Ave San Fernando CA 91340,34.2882223,-118.43388020000002
Maywood Center for Enriched Studies (MaCES) Magnet,90270,6-12,E,5-Jackie Goldberg,5800 King Ave Maywood CA 90270,33.9873205,-118.1830899
Alliance Kory Hunter Middle School,90001,6- 8,XR,7-Dr Richard A Vladovic,5886 Compton Ave Los Angeles CA 90001,33.987055700000006,-118.2474504
Lillian Street Elementary,90001,K- 6,E,5-Jackie Goldberg,5909 Lillian St Los Angeles CA 90001,33.986352200000006,-118.240671
Heliotrope Avenue Elementary,90270,K- 5,E,5-Jackie Goldberg,5911 Woodlawn Ave Maywood CA 90270,33.98580889999999,-118.1769037
John Muir Middle School,90044,6- 8,W,1-Dr George J McKenna III,5929 S Vermont Ave Los Angeles CA 90044,33.9865188,-118.2920462
Los Angeles Center for Enriched Studies (LACES) Magnet,90035,6-12,W,1-Dr George J McKenna III,5931 W 18th St Los Angeles CA 90035,34.0438008,-118.37153290000002
59th Street Elementary,90043,K- 5,W,1-Dr George J McKenna III,5939 Second Ave Los Angeles CA 90043,33.9860362,-118.3199397
Budlong Avenue Elementary,90044,K- 5,W,1-Dr George J McKenna III,5940 S Budlong Ave Los Angeles CA 90044,33.986184,-118.293935
New Horizons Charter Academy,91601,K- 7,XR,6-Kelly Gonez,5955 Lankershim Blvd North Hollywood CA 91601,34.1788313,-118.3835842
Rise Kohyang Elementary,90057,K- K,XR,2-Monica Garcia,600 S La Fayette Park Los Angeles CA 90057,34.0624284,-118.2821708
John Burroughs Middle School Gifted Magnet,90005,6- 8,W,1-Dr George J McKenna III,600 S Mc Cadden Pl Los Angeles CA 90005,34.0636937,-118.3363325
Rowan Avenue Elementary,90023,K- 5,E,2-Monica Garcia,600 S Rowan Ave Los Angeles CA 90023,34.0282941,-118.1871408
Westport Heights Elementary,90045,K- 5,W,4-Nick Melvoin,6011 W 79th St Los Angeles CA 90045,33.9670289,-118.388425
Cheremoya Avenue Elementary,90028,K- 6,W,4-Nick Melvoin,6017 Franklin Ave Los Angeles CA 90028,34.1056527,-118.3206708
Huntington Park Senior High,90255,9-12,E,5-Jackie Goldberg,6020 Miles Ave Huntington Park CA 90255,33.986631200000005,-118.2188995
61st Street Elementary,90003,K- 6,W,1-Dr George J McKenna III,6020 S Figueroa St Los Angeles CA 90003,33.9844968,-118.2819881
Chester W Nimitz Middle School,90255,6- 8,E,5-Jackie Goldberg,6021 Carmelita Ave Huntington Park CA 90255,33.9858976,-118.1971945
Alliance Jack H Skirball Middle School,90059,6- 8,XR,7-Dr Richard A Vladovic,603 E 115th St Los Angeles CA 90059,33.9304566,-118.26495049999998
Bridge Street Elementary,90033,K- 5,E,2-Monica Garcia,605 N Boyle Ave Los Angeles CA 90033,34.052647799999995,-118.216889
John B Monlux Elementary,91606,K- 5,NE,3-Scott M Schmerelson,6051 Bellaire Ave North Hollywood CA 91606,34.181682,-118.409964
Huntington Park  Elementary DL Two-Way Im Spanish,90255,K- 2,E,5-Jackie Goldberg,6055 Corona Ave Huntington Park CA 90255,33.9848797,-118.1950754
Dayton Heights Elementary,90004,K- 5,C,5-Jackie Goldberg,607 N Westmoreland Ave Los Angeles CA 90004,34.082133,-118.2883368
Diego Rivera Learning Complex Communication & Technology,90001,9-12,S,7-Dr Richard A Vladovic,6100 S Central Ave Los Angeles CA 90001,33.983250299999995,-118.2554946
Crete Academy,90043,K- 6,XR,1-Dr George J McKenna III,6103 Crenshaw Blvd Los Angeles CA 90043,33.9844975,-118.3312625
Harold McAlister High School CYESIS,90057,6-12,C,2-Monica Garcia,611 S Carondelet St Los Angeles CA 90057,34.0611239,-118.2803438
Gil Garcetti Learning Academy,90044,K- 6,S,7-Dr Richard A Vladovic,612 W 68th St Los Angeles CA 90044,33.9772612,-118.284343
Maywood Academy Senior High,90270,9-12,E,5-Jackie Goldberg,6125 Pine Ave Maywood CA 90270,33.9829878,-118.18887279999998
Annandale Elementary,90042,K- 5,C,5-Jackie Goldberg,6125 Poppy Peak Dr Los Angeles CA 90042,34.1285474,-118.18666090000002
Warner Avenue Elementary,90024,K- 5,W,4-Nick Melvoin,615 Holmby Ave Los Angeles CA 90024,34.0696414,-118.4333326
Young Oak Kim Academy,90005,6- 8,C,2-Monica Garcia,615 S Shatto Pl Los Angeles CA 90005,34.0633021,-118.2902094
Solano Avenue Elementary,90012,K- 6,E,2-Monica Garcia,615 Solano Ave Los Angeles CA 90012,34.076269,-118.2323495
Lockhurst Drive Charter Elementary,91367,K- 5,NW,3-Scott M Schmerelson,6170 Lockhurst Dr Woodland Hills CA 91367,34.1833399,-118.6470344
San Antonio Elementary,90255,K- 5,E,5-Jackie Goldberg,6222 State St Huntington Park CA 90255,33.9831034,-118.2120477
Sylvan Park Elementary,91411,K- 5,NE,6-Kelly Gonez,6238 Noble Ave Van Nuys CA 91411,34.183604100000004,-118.4614407
Equitas Academy 4,90005,5- 5,XR,4-Nick Melvoin,631 S Commonwealth Ave Los Angeles CA 90005,34.06242599999999,-118.28587009999998
Woodlawn Avenue Elementary,90201,K- 5,E,5-Jackie Goldberg,6314 Woodlawn Ave Bell CA 90201,33.9779925,-118.1776226
Victory Boulevard Elementary,91606,K- 5,NE,6-Kelly Gonez,6315 Radford Ave North Hollywood CA 91606,34.1855899,-118.3922898
Aldama Elementary,90042,K- 5,C,5-Jackie Goldberg,632 N Avenue 50 Los Angeles CA 90042,34.1102323,-118.2064709
Carthay Elementary of Environmental Studies Magnet,90048,K- 5,W,1-Dr George J McKenna III,6351 W Olympic Blvd Los Angeles CA 90048,34.059194700000006,-118.3691642
Linda Esperanza Marquez Senior High HPIAM,90255,9-12,E,5-Jackie Goldberg,6361 Cottage St Huntington Park CA 90255,33.9819497,-118.2338757
Martha Escutia Primary Center,90201,K- K,E,5-Jackie Goldberg,6401 Bear Ave Bell CA 90201,33.9785474,-118.1980263
Mountain View Elementary,91042,K- 5,NE,6-Kelly Gonez,6410 Olcott St Tujunga CA 91042,34.2488873,-118.2723504
Magnolia Science Academy Bell @ South Region MS #2A,90201,6- 8,XR,5-Jackie Goldberg,6411 Orchard Ave Bell CA 90201,33.9791247,-118.2000542
Los Angeles Academy Middle School STEAM Magnet,90011,6- 8,C,7-Dr Richard A Vladovic,644 E 56th St Los Angeles CA 90011,33.9907285,-118.2642196
Alliance Dr Olga Mohan High School,90015,9-12,XR,2-Monica Garcia,644 W 17th St Los Angeles CA 90015,34.0369283,-118.2722591
Kenter Canyon Elementary Charter,90049,K- 5,W,4-Nick Melvoin,645 N Kenter Ave Los Angeles CA 90049,34.0707234,-118.4890885
Luther Burbank Middle School Arts/Technology/Community Mag,90042,6- 8,C,5-Jackie Goldberg,6460 N Figueroa St Los Angeles CA 90042,34.1197278,-118.1833328
Van Nuys Elementary,91401,K- 5,NE,6-Kelly Gonez,6464 Sylmar Ave Van Nuys CA 91401,34.188146,-118.445441
Luther Burbank Middle School Police Academy Magnet,90042,6- 8,C,5-Jackie Goldberg,6468 N Figueroa St Los Angeles CA 90042,34.1198451,-118.18369479999998
Gardena Elementary,90247,K- 5,S,7-Dr Richard A Vladovic,647 W Gardena Blvd Gardena CA 90247,33.88255170000001,-118.2865555
John H Liechty Middle School,90017,6- 8,C,2-Monica Garcia,650 S Union Ave Los Angeles CA 90017,34.05457579999999,-118.2693814
Thomas A Edison Middle School,90001,6- 8,S,7-Dr Richard A Vladovic,6500 Hooper Ave Los Angeles CA 90001,33.9807494,-118.2516457
Independence Continuation High,91406,9-12,NW,3-Scott M Schmerelson,6501 Balboa Blvd Lake Balboa CA 91406,34.1898531,-118.5022351
Fair Avenue Elementary,91606,K- 5,NE,6-Kelly Gonez,6501 Fair Ave North Hollywood CA 91606,34.189953300000006,-118.377056
ISANA Palmati Academy,91606,K- 5,XR,6-Kelly Gonez,6501 Laurel Canyon Blvd North Hollywood CA 91606,34.18960510000001,-118.3975768
Newcastle Elementary School,91335,K- 5,NW,6-Kelly Gonez,6520 Newcastle Ave Reseda CA 91335,34.189534,-118.523881
Van Nuys Senior High,91411,9-12,NE,6-Kelly Gonez,6535 Cedros Ave Van Nuys CA 91411,34.189234,-118.45516299999998
Middleton Street Elementary,90255,1- 6,E,5-Jackie Goldberg,6537 Malabar St Huntington Park CA 90255,33.9797109,-118.2280375
Westside Innovative School House Community,90045,7- 8,XR,4-Nick Melvoin,6550 W 80th St Los Angeles CA 90045,33.9677904,-118.4038765
Ararat Charter School,91401,K- 5,XR,6-Kelly Gonez,6555 Sylmar Ave Van Nuys CA 91401,34.1898545,-118.4468458
66th Street Elementary,90003,K- 6,S,7-Dr Richard A Vladovic,6600 S San Pedro St Los Angeles CA 90003,33.97957299999999,-118.267965
Manchester Avenue Elementary Comm/Broadcasting Magnet,90044,2- 5,S,1-Dr George J McKenna III,661 W 87th St Los Angeles CA 90044,33.95921920000001,-118.2861471
Selma Avenue Elementary,90028,K- 5,W,4-Nick Melvoin,6611 Selma Ave Los Angeles CA 90028,34.1004583,-118.3343797
Haynes Charter for Enriched Studies,91307,K- 5,NW,3-Scott M Schmerelson,6624 Lockhurst Dr West Hills CA 91307,34.19044470000001,-118.6486523
Daniel Pearl Senior High Journalism & Communications Magnet,91406,9-12,NW,3-Scott M Schmerelson,6649 Balboa Blvd Lake Balboa CA 91406,34.191306,-118.5018816
KIPP Raices Academy,90022,K- 4,XR,2-Monica Garcia,668 S Atlantic Blvd Los Angeles CA 90022,34.02282960000001,-118.15624479999998
Everest Value School,90005,K- 8,XR,2-Monica Garcia,668 S Catalina Ave Los Angeles CA 90005,34.061068799999994,-118.295258
Columbus Avenue Elementary,91405,K- 5,NE,6-Kelly Gonez,6700 Columbus Ave Van Nuys CA 91405,34.19298450000001,-118.4635695
Lake Balboa College Preparatory Magnet K-12,91406,K-12,NW,3-Scott M Schmerelson,6701 Balboa Blvd Lake Balboa CA 91406,34.1921506,-118.5013816
Miles Avenue Elementary Science/Tech/Math Magnet,90255,1- 5,E,5-Jackie Goldberg,6720 Miles Ave Huntington Park CA 90255,33.978041,-118.216816
Aspire Titan Academy,90255,K- 5,XR,5-Jackie Goldberg,6720 S Alameda St Huntington Park CA 90255,33.978062,-118.2343
Aspire Junior Collegiate Academy,90255,K- 5,XR,5-Jackie Goldberg,6724 S Alameda St Huntington Park CA 90255,33.9794717,-118.2357419
Bellingham Elementary,91606,K- 5,NE,6-Kelly Gonez,6728 Bellingham Ave North Hollywood CA 91606,34.1929173,-118.3984259
Esperanza Elementary,90017,K- 5,C,2-Monica Garcia,680 Little St Los Angeles CA 90017,34.054672499999995,-118.2722819
Charter High School of Arts-Multimedia & Performing,91405,9-12,XR,6-Kelly Gonez,6842 Van Nuys Blvd Van Nuys CA 91405,34.1951615,-118.4475697
Coldwater Canyon DL Two-Way Im Spanish,91605,K- K,NE,3-Scott M Schmerelson,6850 Coldwater Canyon Av North Hollywood CA 91605,34.195174,-118.412597
Canoga Park Senior High,91303,9-12,NW,3-Scott M Schmerelson,6850 Topanga Cyn Blvd Canoga Park CA 91303,34.195205,-118.602999
Andres & Maria Cardenas Elementary,91405,K- 5,NE,6-Kelly Gonez,6900 Calhoun Ave Van Nuys CA 91405,34.1962104,-118.44186709999998
Owensmouth Continuation High,91303,9-12,NW,3-Scott M Schmerelson,6921 Jordan Ave Canoga Park CA 91303,34.1963885,-118.60310590000002
Valley View Elementary,90068,K- 5,W,4-Nick Melvoin,6921 Woodrow Wilson Dr Los Angeles CA 90068,34.125356200000006,-118.34502820000002
Fullbright Avenue Elementary DL Two-Way Im Spanish,91306,K- K,NW,4-Nick Melvoin,6940 Fullbright Av Winnetka CA 91306,34.196969200000005,-118.5769257
Camino Nuevo Charter Academy,90057,K- 8,XR,2-Monica Garcia,697 S Burlington Ave Los Angeles CA 90057,34.0554739,-118.27356090000002
RFK Comm Schls - UCLA Community School DL One-Way Im Spanish,90005,K- 5,C,2-Monica Garcia,700 S Mariposa Ave Los Angeles CA 90005,34.0598735,-118.2983999
Ednovate-Brio College Prep,90017,9- 9,XR,2-Monica Garcia,700 Wilshire Blvd Ste 400 Los Angeles CA 90017,34.0486245,-118.25745890000002
Horace Mann UCLA Community School,90047,6-11,W,1-Dr George J McKenna III,7001 S St Andrews Pl Los Angeles CA 90047,33.976186,-118.3115258
RFK Comm Schls - Ambassador School - Global Leadership,90005,6-12,C,2-Monica Garcia,701 S Catalina St Los Angeles CA 90005,34.059778,-118.29739779999998
Learning by Design Charter,90047,K- 1,XR,1-Dr George J McKenna III,7019 S Van Ness Av Los Angeles CA 90047,33.9757049,-118.3180217
Bertrand Avenue Elementary,91335,K- 5,NW,6-Kelly Gonez,7021 Bertrand Ave Reseda CA 91335,34.197698200000005,-118.525232
Hazeltine Avenue Elementary,91405,K- 5,NE,6-Kelly Gonez,7150 Hazeltine Ave Van Nuys CA 91405,34.20037200000001,-118.43908799999998
Central Continuation High,90021,9-12,C,2-Monica Garcia,716 E 14th St Los Angeles CA 90021,34.0318133,-118.2539364
Florence Avenue Elementary,90001,K- 6,E,7-Dr Richard A Vladovic,7211 Bell Ave Los Angeles CA 90001,33.973797,-118.238801
Robert Louis Stevenson College & Career Prep,90023,6- 8,E,2-Monica Garcia,725 S Indiana St Los Angeles CA 90023,34.025999600000006,-118.1933102
Reseda Elementary,91335,K- 5,NW,3-Scott M Schmerelson,7265 Amigo Ave Reseda CA 91335,34.2037251,-118.53903259999998
Metropolitan Continuation High,90021,9-12,E,2-Monica Garcia,727 S Wilson St Los Angeles CA 90021,34.0336955,-118.2347994
O'Melveny Elementary,91340,K- 5,NE,6-Kelly Gonez,728 Woodworth St San Fernando CA 91340,34.27494,-118.445655
KIPP Comienza Community Prep,90255,K- 3,XR,5-Jackie Goldberg,7300 Roseberry Av Huntington Park CA 90255,33.9737459,-118.2321267
Melrose Avenue Elementary Math/Science/Technology Magnet,90046,K- 5,W,4-Nick Melvoin,731 N Detroit St Los Angeles CA 90046,34.084255799999994,-118.3454186
Cabrillo Avenue Elementary,90731,K- 5,S,7-Dr Richard A Vladovic,732 S Cabrillo Ave San Pedro CA 90731,33.7373778,-118.2933667
ISANA Cardinal Academy,91352,K- 5,XR,6-Kelly Gonez,7330 Bakman Ave Sun Valley CA 91352,34.2038571,-118.3770963
Ingenium Charter Middle School,91306,6- 7,XR,3-Scott M Schmerelson,7330 Winnetka Ave Winnetka CA 91306,34.202184,-118.5688519
Stanley Mosk Elementary School,91306,K- 5,NW,4-Nick Melvoin,7335 Lubao Ave Winnetka CA 91306,34.2031508,-118.5682626
